rosbagTimestamp,header,seq,stamp,secs,nsecs,frame_id,pose,position,x,y,z,orientation,x,y,z,w
1549646867802076503,,445748,,1549646867,801754272,"""world""",,,1.7825987339,-1.32829725742,0.569239675999,,0.00112706748769,-0.0119174253196,-0.691376388073,-0.722395598888
1549646867810117574,,445749,,1549646867,809981831,"""world""",,,1.78260290623,-1.32833111286,0.569230437279,,0.00104859413113,-0.012026402168,-0.691380500793,-0.722390055656
1549646867820276448,,445750,,1549646867,820172517,"""world""",,,1.78260433674,-1.32832825184,0.569230318069,,0.00112661940511,-0.012053553015,-0.691387534142,-0.72238266468
1549646867830637221,,445751,,1549646867,830482866,"""world""",,,1.78261017799,-1.32830822468,0.569243907928,,0.00110050931107,-0.0120917828754,-0.691308617592,-0.722457647324
1549646867839795254,,445752,,1549646867,839653461,"""world""",,,1.78261327744,-1.3283162117,0.569261610508,,0.00106607039925,-0.012121649459,-0.691463649273,-0.722308814526
1549646867849912714,,445753,,1549646867,849822462,"""world""",,,1.78261053562,-1.32832860947,0.569249153137,,0.00108011974953,-0.0120309274644,-0.691589176655,-0.722190082073
1549646867849925058,,445754,,1549646867,849833221,"""world""",,,1.78260421753,-1.32830178738,0.569237112999,,0.0011260851752,-0.0119597790763,-0.69159758091,-0.722183167934
1549646867860316213,,445755,,1549646867,860181246,"""world""",,,1.7826154232,-1.32831931114,0.569237589836,,0.00106600637082,-0.0119045842439,-0.691506743431,-0.72227114439
1549646867870956679,,445756,,1549646867,870614286,"""world""",,,1.78265762329,-1.32829761505,0.569261372089,,0.000924290565308,-0.012169229798,-0.691291868687,-0.722472548485
1549646867880568369,,445757,,1549646867,880172134,"""world""",,,1.78264653683,-1.32831084728,0.569249391556,,0.00111070473213,-0.0122352736071,-0.691386401653,-0.722380697727
1549646867891133699,,445758,,1549646867,890670091,"""world""",,,1.78262925148,-1.3283187151,0.569253087044,,0.000962500285823,-0.011998269707,-0.691317677498,-0.72245067358
1549646867900769493,,445759,,1549646867,900335679,"""world""",,,1.78264307976,-1.32829904556,0.569253802299,,0.00089615728939,-0.0119690988213,-0.691304147243,-0.722464263439
1549646867900825423,,445760,,1549646867,900377734,"""world""",,,1.78263521194,-1.32829976082,0.569254636765,,0.000950773363002,-0.0118944961578,-0.691279053688,-0.722489356995
1549646867910049724,,445761,,1549646867,909674022,"""world""",,,1.78261363506,-1.32831919193,0.569251835346,,0.00100911455229,-0.0118847601116,-0.69129550457,-0.722473800182
1549646867920563441,,445762,,1549646867,920183388,"""world""",,,1.78262424469,-1.32831907272,0.569225251675,,0.00115278048906,-0.0119541985914,-0.691378116608,-0.722393274307
1549646867931459463,,445763,,1549646867,930584366,"""world""",,,1.78260612488,-1.32833278179,0.569253206253,,0.000992506276816,-0.0119807645679,-0.691456377506,-0.722318172455
1549646867940272759,,445764,,1549646867,939996409,"""world""",,,1.78259885311,-1.32831823826,0.569232881069,,0.00103834574111,-0.0119459815323,-0.691382706165,-0.722389221191
1549646867950605760,,445765,,1549646867,950334466,"""world""",,,1.78261315823,-1.32834529877,0.569244980812,,0.000969811284449,-0.0118754087016,-0.691439270973,-0.722336411476
1549646867950630940,,445766,,1549646867,950360958,"""world""",,,1.78260827065,-1.3283354044,0.569231748581,,0.00100974692032,-0.0118656409904,-0.69129294157,-0.722476482391
1549646867959841859,,445767,,1549646867,959549136,"""world""",,,1.78261351585,-1.3283598423,0.569228589535,,0.00105135445483,-0.0119629316032,-0.691279172897,-0.722488045692
1549646867970158677,,445768,,1549646867,969880493,"""world""",,,1.78260278702,-1.32837474346,0.569219172001,,0.00099160161335,-0.0119103007019,-0.691374480724,-0.72239780426
1549646867980496064,,445769,,1549646867,980189314,"""world""",,,1.78259408474,-1.32838451862,0.569220602512,,0.00104591611307,-0.0119814034551,-0.691403031349,-0.722369253635
1549646867989735772,,445770,,1549646867,989562648,"""world""",,,1.78262805939,-1.32833635807,0.56922018528,,0.00115279504098,-0.0120767587796,-0.691267609596,-0.722496986389
1549646868000370834,,445771,,1549646868,5998,"""world""",,,1.78261578083,-1.3283418417,0.56920582056,,0.00111632002518,-0.0119185643271,-0.691260099411,-0.722506940365
1549646868011116643,,445772,,1549646868,10577301,"""world""",,,1.78262794018,-1.32833766937,0.569193780422,,0.00103453698102,-0.0118197519332,-0.691184937954,-0.722580552101
1549646868011187243,,445773,,1549646868,10629803,"""world""",,,1.78263270855,-1.32831430435,0.569223940372,,0.000992309069261,-0.0119331711903,-0.691181719303,-0.722581863403
1549646868020517897,,445774,,1549646868,20089618,"""world""",,,1.78261554241,-1.32831013203,0.56921762228,,0.00124289514497,-0.0121383452788,-0.691331744194,-0.722434461117
1549646868030666263,,445775,,1549646868,30417363,"""world""",,,1.78261566162,-1.32831990719,0.569254040718,,0.00110362807754,-0.0120123894885,-0.691247820854,-0.722517132759
1549646868040057269,,445776,,1549646868,39820094,"""world""",,,1.78263068199,-1.3283162117,0.569248378277,,0.00108439195901,-0.0120274778455,-0.691197097301,-0.722565472126
1549646868050580530,,445777,,1549646868,50243074,"""world""",,,1.78260266781,-1.32833230495,0.569239675999,,0.000928406254388,-0.011788806878,-0.691297054291,-0.722473978996
1549646868050647026,,445778,,1549646868,50276358,"""world""",,,1.782589674,-1.328348279,0.569224536419,,0.00100301287603,-0.0116888117045,-0.691352725029,-0.722422242165
1549646868059854109,,445779,,1549646868,59541236,"""world""",,,1.78261244297,-1.32831013203,0.569233059883,,0.00104521238245,-0.0120142875239,-0.691281557083,-0.722484886646
1549646868070282919,,445780,,1549646868,69875108,"""world""",,,1.78262162209,-1.32831692696,0.569221556187,,0.00118068931624,-0.0121145350859,-0.691355526447,-0.72241216898
1549646868080690783,,445781,,1549646868,80295972,"""world""",,,1.78260326385,-1.3282905817,0.569209694862,,0.00124613428488,-0.011968052946,-0.691426873207,-0.722346246243
1549646868089931633,,445782,,1549646868,89634613,"""world""",,,1.78260099888,-1.32829868793,0.569210648537,,0.00113551458344,-0.0118952356279,-0.691294193268,-0.722474634647
1549646868100108714,,445783,,1549646868,99894630,"""world""",,,1.78259420395,-1.32831466198,0.56921172142,,0.00112697668374,-0.0118791293353,-0.691220343113,-0.722545564175
1549646868100126150,,445784,,1549646868,99917910,"""world""",,,1.78258264065,-1.32829928398,0.569202899933,,0.0011687396327,-0.0119174802676,-0.691309452057,-0.722459614277
1549646868110464972,,445785,,1549646868,110315708,"""world""",,,1.78259444237,-1.32829582691,0.569210469723,,0.00117801921442,-0.0119681479409,-0.69130307436,-0.722464859486
1549646868119744782,,445786,,1549646868,119588753,"""world""",,,1.78260910511,-1.32830655575,0.569217443466,,0.00105051905848,-0.0120506351814,-0.691410064697,-0.722361326218
1549646868130410744,,445787,,1549646868,130008328,"""world""",,,1.7826102972,-1.32828807831,0.569217562675,,0.00119560456369,-0.0119931604713,-0.691229701042,-0.722534656525
1549646868140927491,,445788,,1549646868,140486563,"""world""",,,1.78258812428,-1.32828986645,0.56919491291,,0.00121472252067,-0.0118853375316,-0.691199839115,-0.722564935684
1549646868150295812,,445789,,1549646868,149902379,"""world""",,,1.78260159492,-1.32830166817,0.56919324398,,0.00113725638948,-0.0119125535712,-0.691205263138,-0.722559392452
1549646868150341253,,445790,,1549646868,149954617,"""world""",,,1.78258514404,-1.32829964161,0.569172084332,,0.00109604897443,-0.0117057310417,-0.691060423851,-0.722701430321
1549646868160721550,,445791,,1549646868,160320156,"""world""",,,1.78261899948,-1.3283110857,0.569215476513,,0.000894110824447,-0.0119082005695,-0.69133412838,-0.722436547279
1549646868170054274,,445792,,1549646868,169642882,"""world""",,,1.7826397419,-1.32828807831,0.569211483002,,0.00110208359547,-0.0121243093163,-0.691228032112,-0.722534239292
1549646868180504824,,445793,,1549646868,180092586,"""world""",,,1.78261816502,-1.328297019,0.569218158722,,0.00110668758862,-0.0119328247383,-0.691387951374,-0.722384393215
1549646868191045107,,445794,,1549646868,190564746,"""world""",,,1.78262507915,-1.32829248905,0.569230914116,,0.00110336451326,-0.0119744902477,-0.69155985117,-0.722219109535
1549646868200096233,,445795,,1549646868,199887657,"""world""",,,1.78263831139,-1.32825934887,0.569249629974,,0.00113239441998,-0.0121449558064,-0.691514372826,-0.722259819508
1549646868210359985,,445796,,1549646868,210140330,"""world""",,,1.78264474869,-1.32827949524,0.569256305695,,0.00117175362539,-0.0121154747903,-0.691476464272,-0.722296476364
1549646868210385841,,445797,,1549646868,210167302,"""world""",,,1.78264594078,-1.32830512524,0.569268584251,,0.00116722146049,-0.0122070703655,-0.69140958786,-0.722358942032
1549646868220656757,,445798,,1549646868,220439183,"""world""",,,1.78264605999,-1.32830154896,0.569253504276,,0.00128363224212,-0.0121709890664,-0.691188931465,-0.722570478916
1549646868229982349,,445799,,1549646868,229769996,"""world""",,,1.78264737129,-1.32832419872,0.569256722927,,0.00128789036535,-0.0122506963089,-0.691222071648,-0.722537398338
1549646868240193436,,445800,,1549646868,240024902,"""world""",,,1.78266298771,-1.32831072807,0.569268107414,,0.00131912250072,-0.0122778490186,-0.691188037395,-0.722569525242
1549646868250520213,,445801,,1549646868,250328547,"""world""",,,1.7826693058,-1.32830393314,0.569280445576,,0.00122484331951,-0.0122163016349,-0.691314995289,-0.722449243069
1549646868250543557,,445802,,1549646868,250352102,"""world""",,,1.78268015385,-1.32828211784,0.569285750389,,0.00115644570906,-0.0121922018006,-0.691247522831,-0.722514331341
1549646868259836844,,445803,,1549646868,259635498,"""world""",,,1.78268051147,-1.32826638222,0.569289386272,,0.00118464499246,-0.0120730148628,-0.691307961941,-0.722458422184
1549646868270174305,,445804,,1549646868,269985385,"""world""",,,1.78264057636,-1.32830893993,0.569235146046,,0.00125756370835,-0.0120306573808,-0.691540718079,-0.722236275673
1549646868280446904,,445805,,1549646868,280286969,"""world""",,,1.78267109394,-1.32828426361,0.569259762764,,0.00110225798562,-0.0121344933286,-0.691378951073,-0.722389578819
1549646868289816686,,445806,,1549646868,289547454,"""world""",,,1.78268015385,-1.32824206352,0.569264769554,,0.00116173666902,-0.0123131182045,-0.691540658474,-0.722231686115
1549646868300118899,,445807,,1549646868,299872434,"""world""",,,1.78267717361,-1.32825052738,0.569264531136,,0.00119545403868,-0.0122976480052,-0.691493928432,-0.722276687622
1549646868300138954,,445808,,1549646868,299898003,"""world""",,,1.78265976906,-1.32826733589,0.569236576557,,0.00117076234892,-0.0120804496109,-0.691357254982,-0.722411155701
1549646868310560558,,445809,,1549646868,310359149,"""world""",,,1.78264272213,-1.32826554775,0.569269180298,,0.00117477145977,-0.0120007703081,-0.691433191299,-0.722339808941
1549646868319749645,,445810,,1549646868,319571088,"""world""",,,1.7826397419,-1.32830345631,0.56925034523,,0.0011547752656,-0.0120329651982,-0.691468954086,-0.722305059433
1549646868329959316,,445811,,1549646868,329809173,"""world""",,,1.78260803223,-1.32828783989,0.569246828556,,0.00124002492521,-0.0119116902351,-0.691231310368,-0.722534298897
1549646868340761968,,445812,,1549646868,340311103,"""world""",,,1.78261184692,-1.32830798626,0.569241225719,,0.00117007340305,-0.0119277229533,-0.691253721714,-0.72251278162
1549646868350264140,,445813,,1549646868,349820919,"""world""",,,1.78262937069,-1.32829260826,0.569239854813,,0.00128508196212,-0.0121005512774,-0.691059291363,-0.722695708275
1549646868350321727,,445814,,1549646868,349879009,"""world""",,,1.78260183334,-1.32831203938,0.569234251976,,0.00126176793128,-0.0119807831943,-0.691247224808,-0.722517907619
1549646868360675810,,445815,,1549646868,360297477,"""world""",,,1.78255772591,-1.32833361626,0.569224238396,,0.00143976742402,-0.0119547015056,-0.691583514214,-0.722196161747
1549646868371191080,,445816,,1549646868,369860217,"""world""",,,1.78258514404,-1.32834160328,0.569262206554,,0.00111384131014,-0.0120030986145,-0.69185513258,-0.721935749054
1549646868380666355,,445817,,1549646868,380281328,"""world""",,,1.78260326385,-1.32834708691,0.569284975529,,0.00109237909783,-0.012059206143,-0.691757917404,-0.722027957439
1549646868389867891,,445818,,1549646868,389629451,"""world""",,,1.78262472153,-1.32831990719,0.569266855717,,0.00109579879791,-0.0121296262369,-0.691492140293,-0.722281336784
1549646868400288798,,445819,,1549646868,399987590,"""world""",,,1.78258705139,-1.32834565639,0.569243788719,,0.00119856069796,-0.0120539953932,-0.691564440727,-0.722213208675
1549646868400323871,,445820,,1549646868,400020120,"""world""",,,1.78257834911,-1.32836186886,0.569227457047,,0.00131434656214,-0.0118356700987,-0.691432535648,-0.722342908382
1549646868410620807,,445821,,1549646868,410386898,"""world""",,,1.78260266781,-1.32838129997,0.569241404533,,0.00109398469795,-0.0119066769257,-0.69147258997,-0.722303748131
1549646868419945857,,445822,,1549646868,419666895,"""world""",,,1.78261899948,-1.32832837105,0.569238603115,,0.00119268859271,-0.0119660831988,-0.691317617893,-0.722450971603
1549646868430287279,,445823,,1549646868,429989169,"""world""",,,1.78264343739,-1.32831013203,0.569269180298,,0.00111362501048,-0.0119974799454,-0.691607356071,-0.722173154354
1549646868440573680,,445824,,1549646868,440357753,"""world""",,,1.78265237808,-1.32831156254,0.569275200367,,0.00104957807343,-0.0119858952239,-0.691583096981,-0.722196698189
1549646868449882730,,445825,,1549646868,449615076,"""world""",,,1.78266048431,-1.3282879591,0.569270610809,,0.0011997591937,-0.0121021848172,-0.691669344902,-0.722111940384
1549646868449916265,,445826,,1549646868,449647188,"""world""",,,1.78263473511,-1.32830631733,0.569266438484,,0.00120885774959,-0.0120485834777,-0.691585421562,-0.722193181515
1549646868460517092,,445827,,1549646868,460110567,"""world""",,,1.78264176846,-1.32830917835,0.569270372391,,0.00114483863581,-0.01198000554,-0.6915833354,-0.72219645977
1549646868471106757,,445828,,1549646868,470643461,"""world""",,,1.78262555599,-1.32836282253,0.569304466248,,0.000989043153822,-0.0119329327717,-0.69193315506,-0.721862375736
1549646868480671585,,445829,,1549646868,480222835,"""world""",,,1.78262734413,-1.328363657,0.569310903549,,0.000932517112233,-0.0119939576834,-0.69197756052,-0.721818804741
1549646868491131119,,445830,,1549646868,490669425,"""world""",,,1.78264093399,-1.32834017277,0.569285333157,,0.00101898773573,-0.0119826085865,-0.69173592329,-0.722050428391
1549646868500506619,,445831,,1549646868,500102561,"""world""",,,1.7826372385,-1.32831251621,0.569279909134,,0.00110170675907,-0.011963759549,-0.691576063633,-0.722203791142
1549646868500551540,,445832,,1549646868,500159800,"""world""",,,1.78262925148,-1.32830893993,0.569287896156,,0.00111963087693,-0.0119907781482,-0.691548526287,-0.722229599953
1549646868511023427,,445833,,1549646868,510613625,"""world""",,,1.78265094757,-1.3283239603,0.569303810596,,0.00109189143404,-0.0124054979533,-0.691576421261,-0.722196042538
1549646868520147265,,445834,,1549646868,519959488,"""world""",,,1.78262221813,-1.32828712463,0.569263577461,,0.00124386535026,-0.0120715955272,-0.69151198864,-0.722263038158
1549646868530412029,,445835,,1549646868,530177815,"""world""",,,1.78264987469,-1.32830131054,0.569266319275,,0.00105092755985,-0.0120309339836,-0.69158488512,-0.722194314003
1549646868540651417,,445836,,1549646868,540460613,"""world""",,,1.78265726566,-1.32832205296,0.569281816483,,0.00116541283205,-0.0121929580346,-0.691647231579,-0.722131669521
1549646868549985248,,445837,,1549646868,549805549,"""world""",,,1.78263521194,-1.32831323147,0.569274604321,,0.0011622615857,-0.0120488954708,-0.691567540169,-0.722210347652
1549646868550006366,,445838,,1549646868,549825001,"""world""",,,1.78259897232,-1.32835185528,0.569270849228,,0.00097798393108,-0.0119569525123,-0.691875398159,-0.721917331219
1549646868560413116,,445839,,1549646868,560179404,"""world""",,,1.78261733055,-1.32833135128,0.569265007973,,0.00104176485911,-0.0118681816384,-0.69154381752,-0.722236335278
1549646868570609856,,445840,,1549646868,570409600,"""world""",,,1.78262746334,-1.32834160328,0.569297432899,,0.000997227965854,-0.0119379470125,-0.691651523113,-0.722132086754
1549646868579855007,,445841,,1549646868,579650170,"""world""",,,1.78261983395,-1.32836222649,0.569281160831,,0.0009973278502,-0.011944944039,-0.691623926163,-0.722158312798
1549646868590174653,,445842,,1549646868,589963117,"""world""",,,1.78261077404,-1.32834637165,0.569304823875,,0.00107032689266,-0.0119641479105,-0.691552340984,-0.722226560116
1549646868600395422,,445843,,1549646868,600205130,"""world""",,,1.78262579441,-1.32833349705,0.569313526154,,0.00126966449898,-0.0122900241986,-0.691440999508,-0.72232735157
1549646868600419095,,445844,,1549646868,600230679,"""world""",,,1.78261518478,-1.32833480835,0.56928139925,,0.000987016363069,-0.0120627479628,-0.69154381752,-0.722233176231
1549646868610683465,,445845,,1549646868,610518680,"""world""",,,1.78262531757,-1.32834124565,0.569279313087,,0.00112455245107,-0.0120098805055,-0.691606283188,-0.722173988819
1549646868619988185,,445846,,1549646868,619776647,"""world""",,,1.78262662888,-1.32834911346,0.569291472435,,0.00103420135565,-0.0120508121327,-0.691609799862,-0.722170054913
1549646868630274781,,445847,,1549646868,630098173,"""world""",,,1.78261065483,-1.32831203938,0.569274663925,,0.001340025221,-0.0121811125427,-0.691369354725,-0.722397685051
1549646868640824179,,445848,,1549646868,640481357,"""world""",,,1.78262603283,-1.32830631733,0.569283008575,,0.00122539908625,-0.012245958671,-0.691388726234,-0.722378253937
1549646868650262732,,445849,,1549646868,649877642,"""world""",,,1.78262889385,-1.32831478119,0.569284677505,,0.00122799247038,-0.012264453806,-0.691319644451,-0.72244399786
1549646868650311664,,445850,,1549646868,649931127,"""world""",,,1.78260612488,-1.32834303379,0.569278478622,,0.00111634854693,-0.0121003333479,-0.691509187222,-0.722265481949
1549646868660736288,,445851,,1549646868,660349173,"""world""",,,1.78261935711,-1.32832562923,0.569297671318,,0.00104879995342,-0.0121597237885,-0.691602468491,-0.722175240517
1549646868670122788,,445852,,1549646868,669658950,"""world""",,,1.78261470795,-1.32833433151,0.56928396225,,0.00120275199879,-0.0121504105628,-0.691444098949,-0.722326815128
1549646868680544783,,445853,,1549646868,680174774,"""world""",,,1.78262770176,-1.32831740379,0.569258868694,,0.00121449539438,-0.0121821854264,-0.691291034222,-0.722472786903
1549646868691092782,,445854,,1549646868,690603385,"""world""",,,1.78262627125,-1.32831907272,0.569260597229,,0.00113160500769,-0.0122510194778,-0.691516578197,-0.722255825996
1549646868700592061,,445855,,1549646868,700094664,"""world""",,,1.78262031078,-1.32832527161,0.569250404835,,0.00111067888793,-0.0122272968292,-0.691532671452,-0.722240924835
1549646868700634661,,445856,,1549646868,700151394,"""world""",,,1.78263378143,-1.32833468914,0.569245636463,,0.0011150278151,-0.012264023535,-0.691482126713,-0.722288608551
1549646868710950935,,445857,,1549646868,710550739,"""world""",,,1.78265023232,-1.32831549644,0.569264888763,,0.00113158184104,-0.0123373046517,-0.691523849964,-0.722247362137
1549646868720207535,,445858,,1549646868,719967511,"""world""",,,1.78263044357,-1.32831740379,0.569243788719,,0.00128295365721,-0.0122834676877,-0.691439628601,-0.722328662872
1549646868730864097,,445859,,1549646868,730485731,"""world""",,,1.7826308012,-1.32832717896,0.569267094135,,0.00128244713414,-0.0123304482549,-0.691627860069,-0.722147643566
1549646868740304803,,445860,,1549646868,739911206,"""world""",,,1.7826281786,-1.32832753658,0.56924456358,,0.00136041443329,-0.0123000722378,-0.691517412663,-0.722253799438
1549646868750906571,,445861,,1549646868,750328137,"""world""",,,1.78260564804,-1.32834017277,0.569229960442,,0.00133410026319,-0.0121740344912,-0.691358983517,-0.722407698631
1549646868750946038,,445862,,1549646868,750371020,"""world""",,,1.78261733055,-1.32836174965,0.569238781929,,0.00132800359279,-0.0121462000534,-0.691474914551,-0.722297132015
1549646868759963722,,445863,,1549646868,759565317,"""world""",,,1.7826012373,-1.32836735249,0.569238007069,,0.00127654219978,-0.0121163018048,-0.691410124302,-0.722359776497
1549646868770745915,,445864,,1549646868,770491119,"""world""",,,1.78261232376,-1.32837712765,0.569221198559,,0.00122797605582,-0.0120509043336,-0.691506743431,-0.722268521786
1549646868780030948,,445865,,1549646868,779792095,"""world""",,,1.78261506557,-1.32836723328,0.569230020046,,0.00131250650156,-0.0120933288708,-0.691472411156,-0.722300410271
1549646868790330179,,445866,,1549646868,790061699,"""world""",,,1.78262495995,-1.32833838463,0.569250464439,,0.00114272756036,-0.0121005624533,-0.691472291946,-0.722300708294
1549646868800943160,,445867,,1549646868,800511869,"""world""",,,1.7825987339,-1.32834553719,0.569224059582,,0.00121031317394,-0.0119921537116,-0.691505253315,-0.722270846367
1549646868800985181,,445868,,1549646868,800569776,"""world""",,,1.78262519836,-1.32834684849,0.569241046906,,0.00126776483376,-0.0121118659154,-0.691502690315,-0.722271263599
1549646868820878764,,445869,,1549646868,820454305,"""world""",,,1.78262829781,-1.32832837105,0.569253027439,,0.00122625590302,-0.0121930846944,-0.691569983959,-0.722205519676
1549646868820913630,,445870,,1549646868,820509696,"""world""",,,1.78259694576,-1.32838141918,0.569264352322,,0.00121776969172,-0.0120384236798,-0.691593766212,-0.722185313702
1549646868830117022,,445871,,1549646868,829855055,"""world""",,,1.78263676167,-1.32835018635,0.569278717041,,0.00121361564379,-0.0122533142567,-0.691420257092,-0.722347974777
1549646868840748747,,445872,,1549646868,840335673,"""world""",,,1.78262865543,-1.32835459709,0.569268405437,,0.00121471763123,-0.0121680377051,-0.691447675228,-0.722323060036
1549646868850490940,,445873,,1549646868,850105261,"""world""",,,1.78262400627,-1.32832479477,0.569271802902,,0.00121521495748,-0.0120850857347,-0.691346228123,-0.722421586514
1549646868850538065,,445874,,1549646868,850145904,"""world""",,,1.78263616562,-1.32832276821,0.569294154644,,0.00115439621732,-0.0121412863955,-0.691372871399,-0.722395181656
1549646868860916228,,445875,,1549646868,860511468,"""world""",,,1.78263747692,-1.32834267616,0.569283783436,,0.00122878490947,-0.0120656974614,-0.691404283047,-0.722366333008
1549646868870365695,,445876,,1549646868,869952731,"""world""",,,1.78262078762,-1.32833230495,0.569280207157,,0.0012519977754,-0.0121304718778,-0.691481351852,-0.722291409969
1549646868880739410,,445877,,1549646868,880339355,"""world""",,,1.78263914585,-1.32830560207,0.5692923069,,0.0012340095127,-0.0120502868667,-0.691354095936,-0.722414553165
1549646868890080810,,445878,,1549646868,889666489,"""world""",,,1.7826448679,-1.32832181454,0.569286823273,,0.00107492355164,-0.0120910843834,-0.691536664963,-0.722239434719
1549646868900585221,,445879,,1549646868,900152247,"""world""",,,1.78263270855,-1.328307271,0.569260597229,,0.00121736642905,-0.0120663214475,-0.691369235516,-0.722399890423
1549646868900628591,,445880,,1549646868,900230342,"""world""",,,1.78263401985,-1.32832980156,0.569272756577,,0.0010677811224,-0.0121345100924,-0.691479325294,-0.722293615341
1549646868911145842,,445881,,1549646868,910707642,"""world""",,,1.78262984753,-1.32833170891,0.569261908531,,0.0010160189122,-0.0119031565264,-0.691509783268,-0.722268342972
1549646868920530487,,445882,,1549646868,920114554,"""world""",,,1.78263378143,-1.32832896709,0.56925714016,,0.000984506797977,-0.0118558015674,-0.69156908989,-0.72221237421
1549646868930955862,,445883,,1549646868,930561049,"""world""",,,1.78262543678,-1.32834029198,0.569251835346,,0.00111670512706,-0.0119751598686,-0.691529810429,-0.722247779369
1549646868940363173,,445884,,1549646868,939955525,"""world""",,,1.7826256752,-1.32834196091,0.569245636463,,0.00108050787821,-0.011960295029,-0.691429615021,-0.722344040871
1549646868950595494,,445885,,1549646868,950334212,"""world""",,,1.78261435032,-1.32836544514,0.56924945116,,0.00101242878009,-0.0119737591594,-0.691624820232,-0.7221570611
1549646868950676419,,445886,,1549646868,950413638,"""world""",,,1.782589674,-1.32835972309,0.569229543209,,0.00106746889651,-0.0118402419612,-0.691537618637,-0.722242712975
1549646868960008025,,445887,,1549646868,959741708,"""world""",,,1.78260564804,-1.32834982872,0.569238305092,,0.00108987221029,-0.0119170723483,-0.691489756107,-0.72228717804
1549646868970380514,,445888,,1549646868,970143272,"""world""",,,1.78259968758,-1.3283520937,0.569244205952,,0.0011433303589,-0.011949849315,-0.691492021084,-0.722284436226
1549646868980669312,,445889,,1549646868,980448803,"""world""",,,1.78261947632,-1.328332901,0.569243133068,,0.00118534965441,-0.0120034674183,-0.691399753094,-0.722371697426
1549646868990031949,,445890,,1549646868,989785569,"""world""",,,1.7826321125,-1.32835805416,0.569244384766,,0.00107916735578,-0.012116111815,-0.691442549229,-0.7223290205
1549646869003428120,,445891,,1549646869,102899,"""world""",,,1.78262579441,-1.32835936546,0.569257736206,,0.00116955873091,-0.0121307233348,-0.691556155682,-0.722219944
1549646869003462559,,445892,,1549646869,132131,"""world""",,,1.78264117241,-1.32835674286,0.569263935089,,0.00117620150559,-0.0121772726998,-0.691517651081,-0.72225600481
1549646869010728158,,445893,,1549646869,10464334,"""world""",,,1.78263759613,-1.32835710049,0.5692704916,,0.00114897242747,-0.0121192652732,-0.691404521465,-0.722365379333
1549646869020042618,,445894,,1549646869,19773237,"""world""",,,1.78264737129,-1.32832288742,0.569268107414,,0.00129805901088,-0.0122762685642,-0.691385567188,-0.722380578518
1549646869030434506,,445895,,1549646869,30226957,"""world""",,,1.78263759613,-1.32832920551,0.569271981716,,0.00116909598,-0.0122166732326,-0.691427469254,-0.72234171629
1549646869040788332,,445896,,1549646869,40552999,"""world""",,,1.78262627125,-1.32833182812,0.569257259369,,0.00122393039055,-0.0119772795588,-0.691417694092,-0.722354948521
1549646869050111785,,445897,,1549646869,49836902,"""world""",,,1.78273260593,-1.32833313942,0.56932079792,,0.00101776758675,-0.0126192383468,-0.691891670227,-0.721890449524
1549646869050192029,,445898,,1549646869,49868860,"""world""",,,1.78265893459,-1.32832324505,0.569256305695,,0.0011449783342,-0.0120558589697,-0.6912561059,-0.722508370876
1549646869060460071,,445899,,1549646869,60183683,"""world""",,,1.78263866901,-1.32832610607,0.569264948368,,0.0011253694538,-0.0119866756722,-0.691348075867,-0.722421586514
1549646869070761493,,445900,,1549646869,70502934,"""world""",,,1.78264391422,-1.3283315897,0.569258987904,,0.00111966754775,-0.0118889706209,-0.691180765629,-0.72258323431
1549646869080057944,,445901,,1549646869,79754191,"""world""",,,1.78264498711,-1.32833492756,0.569270372391,,0.00109777995385,-0.0119001781568,-0.691252410412,-0.722514569759
1549646869090310086,,445902,,1549646869,90067380,"""world""",,,1.78264701366,-1.32835137844,0.569274663925,,0.00106012425385,-0.0119864251465,-0.691259026527,-0.722506940365
1549646869100931979,,445903,,1549646869,100454720,"""world""",,,1.78264403343,-1.32833623886,0.569254934788,,0.00116093270481,-0.0120352217928,-0.69100600481,-0.722747921944
1549646869100941669,,445904,,1549646869,100490957,"""world""",,,1.78263783455,-1.32836604118,0.56926804781,,0.00114349578507,-0.0119971195236,-0.691257238388,-0.722508311272
1549646869110645764,,445905,,1549646869,110393778,"""world""",,,1.78266310692,-1.32834017277,0.569258332253,,0.0012279918883,-0.0121676241979,-0.691228806973,-0.722532510757
1549646869120027784,,445906,,1549646869,119746433,"""world""",,,1.78265440464,-1.32832157612,0.569274663925,,0.00122525996994,-0.012243242003,-0.691294193268,-0.722468733788
1549646869130335644,,445907,,1549646869,130045945,"""world""",,,1.78267276287,-1.32830417156,0.569292068481,,0.00114585296251,-0.0122676193714,-0.691522717476,-0.722249686718
1549646869140770477,,445908,,1549646869,140495499,"""world""",,,1.78264129162,-1.328332901,0.569277882576,,0.00115437223576,-0.0119682159275,-0.691384792328,-0.722386717796
1549646869150107819,,445909,,1549646869,149866473,"""world""",,,1.78262650967,-1.32834780216,0.569274485111,,0.00117142207455,-0.0120069300756,-0.691375732422,-0.722394645214
1549646869150139656,,445910,,1549646869,149899457,"""world""",,,1.78263914585,-1.32835590839,0.569269657135,,0.00122909049969,-0.0121331792325,-0.691387414932,-0.722381293774
1549646869160534469,,445911,,1549646869,160212293,"""world""",,,1.78265225887,-1.32835948467,0.569277942181,,0.00108274759259,-0.0120372353122,-0.691286623478,-0.722479641438
1549646869170819018,,445912,,1549646869,170589402,"""world""",,,1.78263914585,-1.32838773727,0.569257199764,,0.00109624222387,-0.0118944412097,-0.691395819187,-0.722377419472
1549646869180241088,,445913,,1549646869,179961511,"""world""",,,1.78264915943,-1.32837986946,0.569257795811,,0.00121342600323,-0.0120559195057,-0.691408038139,-0.722362935543
1549646869190547188,,445914,,1549646869,190288149,"""world""",,,1.78264570236,-1.32836866379,0.569254755974,,0.00116203527432,-0.0120539199561,-0.691348671913,-0.722419798374
1549646869200917188,,445915,,1549646869,200635374,"""world""",,,1.78263390064,-1.32835841179,0.569263935089,,0.00116708723363,-0.0120468828827,-0.691304206848,-0.722462534904
1549646869200999890,,445916,,1549646869,200663942,"""world""",,,1.78264224529,-1.32835507393,0.569274544716,,0.00111622409895,-0.0120085868984,-0.691369950771,-0.722400307655
1549646869210286105,,445917,,1549646869,210060795,"""world""",,,1.78261983395,-1.32834851742,0.569264888763,,0.00124321551993,-0.0119874635711,-0.691354751587,-0.722414970398
1549646869220911360,,445918,,1549646869,220483448,"""world""",,,1.78263962269,-1.328338027,0.569271206856,,0.00110460759606,-0.012099810876,-0.691304326057,-0.722461640835
1549646869230264485,,445919,,1549646869,229929562,"""world""",,,1.78264093399,-1.32835674286,0.569265186787,,0.00115455756895,-0.0121281193569,-0.691415250301,-0.722354829311
1549646869240689877,,445920,,1549646869,240358210,"""world""",,,1.78265988827,-1.32833635807,0.569241285324,,0.00126363139134,-0.012239892967,-0.691208183765,-0.722550988197
1549646869250185973,,445921,,1549646869,249768682,"""world""",,,1.78265166283,-1.32833445072,0.569236338139,,0.00133328919765,-0.0122415591031,-0.691171586514,-0.72258579731
1549646869250233323,,445922,,1549646869,249821376,"""world""",,,1.78263807297,-1.32833075523,0.569243729115,,0.00135148083791,-0.012236662209,-0.691150665283,-0.72260594368
1549646869261027261,,445923,,1549646869,260307709,"""world""",,,1.78263664246,-1.32833492756,0.569222986698,,0.00137908232864,-0.0121330497786,-0.691043674946,-0.722709834576
1549646869269929618,,445924,,1549646869,269713763,"""world""",,,1.78264260292,-1.32833278179,0.569223940372,,0.00134923926089,-0.0121354628354,-0.690978825092,-0.722771942616
1549646869280239645,,445925,,1549646869,279978549,"""world""",,,1.7826436758,-1.32835137844,0.569243490696,,0.00123046454974,-0.0122100515291,-0.691148400307,-0.722608685493
1549646869290629407,,445926,,1549646869,290388082,"""world""",,,1.78265404701,-1.32835030556,0.569210350513,,0.00125136994757,-0.0121128764004,-0.690983355045,-0.722768068314
1549646869300073136,,445927,,1549646869,299806026,"""world""",,,1.78265023232,-1.32833766937,0.569227933884,,0.00113783695269,-0.0119803696871,-0.691092133522,-0.722666501999
1549646869300094205,,445928,,1549646869,299838082,"""world""",,,1.78265309334,-1.32834267616,0.569208920002,,0.00116429559421,-0.0120088411495,-0.691035032272,-0.722720563412
1549646869310515406,,445929,,1549646869,310307170,"""world""",,,1.7826397419,-1.32834374905,0.569220423698,,0.0011797765037,-0.0122218560427,-0.690980374813,-0.722769260406
1549646869319940690,,445930,,1549646869,319712319,"""world""",,,1.78266775608,-1.32832896709,0.569198608398,,0.00133373448625,-0.0120956469327,-0.69078540802,-0.722957491875
1549646869330355929,,445931,,1549646869,330141280,"""world""",,,1.78264915943,-1.32835948467,0.569212377071,,0.00112948997412,-0.0119198439643,-0.691052615643,-0.722705304623
1549646869340626232,,445932,,1549646869,340412645,"""world""",,,1.78265762329,-1.32835102081,0.569206357002,,0.00117406132631,-0.0120012778789,-0.690958321095,-0.722794115543
1549646869350059443,,445933,,1549646869,349783596,"""world""",,,1.78264284134,-1.32834684849,0.569226264954,,0.00121433311142,-0.01215151418,-0.691040456295,-0.722712934017
1549646869350091054,,445934,,1549646869,349819574,"""world""",,,1.78264176846,-1.32834172249,0.569229483604,,0.00114105455577,-0.0120864417404,-0.691125571728,-0.722632825375
1549646869360326753,,445935,,1549646869,360109923,"""world""",,,1.78264677525,-1.3283367157,0.569240808487,,0.00116332655307,-0.0121740670875,-0.691083669662,-0.722671329975
1549646869370765542,,445936,,1549646869,370471105,"""world""",,,1.78263425827,-1.32833945751,0.569241702557,,0.00112241215538,-0.0120982546359,-0.691205024719,-0.722556591034
1549646869380080619,,445937,,1549646869,379800025,"""world""",,,1.78263938427,-1.32833707333,0.569253981113,,0.0011794854654,-0.0122192362323,-0.691199958324,-0.722559332848
1549646869390503169,,445938,,1549646869,390201189,"""world""",,,1.78265368938,-1.32831501961,0.569261610508,,0.00114192732144,-0.0121821025386,-0.691134929657,-0.722622215748
1549646869400705710,,445939,,1549646869,400495263,"""world""",,,1.78261888027,-1.32835519314,0.569242596626,,0.00108867429662,-0.0119749568403,-0.691240131855,-0.722525119781
1549646869400738269,,445940,,1549646869,400529902,"""world""",,,1.78261947632,-1.32842350006,0.569220662117,,0.000965335348155,-0.0119231408462,-0.691285252571,-0.722482979298
1549646869410137998,,445941,,1549646869,409875289,"""world""",,,1.78260803223,-1.32859766483,0.56920582056,,0.000707820232492,-0.011731043458,-0.691281616688,-0.722489893436
1549646869422674766,,445942,,1549646869,420247664,"""world""",,,1.78258514404,-1.32877779007,0.569197595119,,0.000614024698734,-0.0113821551204,-0.691459298134,-0.722325503826
1549646869430089971,,445943,,1549646869,429639057,"""world""",,,1.78261864185,-1.32887363434,0.569175481796,,0.00050987029681,-0.0112034818158,-0.69121325016,-0.722563803196
1549646869440487379,,445944,,1549646869,440033004,"""world""",,,1.78264629841,-1.32867622375,0.569194018841,,0.000383264297852,-0.0112706227228,-0.691049516201,-0.722719430923
1549646869451031260,,445945,,1549646869,450565922,"""world""",,,1.78264474869,-1.32820057869,0.569177925587,,0.00049721164396,-0.0110062267631,-0.690858542919,-0.722905993462
1549646869451084735,,445946,,1549646869,450608232,"""world""",,,1.78281164169,-1.32750320435,0.569296777248,,0.000575813639443,-0.012083042413,-0.69158411026,-0.722194612026
1549646869460435587,,445947,,1549646869,460096531,"""world""",,,1.78288316727,-1.3267031908,0.56936955452,,0.0017681295285,-0.0128431404009,-0.691498219967,-0.72226190567
1549646869470723172,,445948,,1549646869,470539614,"""world""",,,1.78288543224,-1.3260383606,0.569397389889,,0.00224460242316,-0.0130314165726,-0.691585063934,-0.722173988819
1549646869480200244,,445949,,1549646869,480059944,"""world""",,,1.78288936615,-1.32539820671,0.569446265697,,0.00159190839622,-0.0136549081653,-0.690504312515,-0.723197638988
1549646869490552972,,445950,,1549646869,490384479,"""world""",,,1.78285968304,-1.3250887394,0.569444179535,,0.00275728688575,-0.0135091403499,-0.691087245941,-0.722639799118
1549646869500001112,,445951,,1549646869,499570296,"""world""",,,1.78284549713,-1.32477355003,0.56948196888,,0.00167205522303,-0.0137372873724,-0.69014531374,-0.723538517952
1549646869500019455,,445952,,1549646869,499594788,"""world""",,,1.78281223774,-1.32476651669,0.569410383701,,0.00262664328329,-0.0133119281381,-0.690801858902,-0.722916841507
1549646869510152602,,445953,,1549646869,509910128,"""world""",,,1.78281664848,-1.32467961311,0.569379925728,,0.00246559968218,-0.0131626874208,-0.690670728683,-0.723045408726
1549646869520262822,,445954,,1549646869,520111364,"""world""",,,1.78276336193,-1.32458090782,0.569339156151,,0.00232977606356,-0.0127680031583,-0.690477252007,-0.723237752914
1549646869530656370,,445955,,1549646869,530473527,"""world""",,,1.7826987505,-1.3243162632,0.569362342358,,0.00148288311902,-0.0128775080666,-0.689566075802,-0.72410684824
1549646869539957213,,445956,,1549646869,539748939,"""world""",,,1.78264534473,-1.32404303551,0.569382309914,,0.00144261284731,-0.0130779780447,-0.689574241638,-0.724095463753
1549646869550238531,,445957,,1549646869,550031434,"""world""",,,1.78263866901,-1.3237631321,0.569370031357,,0.00246139382944,-0.0131209408864,-0.690074324608,-0.723615407944
1549646869550259168,,445958,,1549646869,550056763,"""world""",,,1.78264868259,-1.3233833313,0.569379210472,,0.0025797104463,-0.0131421443075,-0.69007396698,-0.723614990711
1549646869560474350,,445959,,1549646869,560282041,"""world""",,,1.78273880482,-1.32297587395,0.569469749928,,0.00242240680382,-0.0136159630492,-0.690081238747,-0.723599851131
1549646869570625368,,445960,,1549646869,570477384,"""world""",,,1.78278493881,-1.32259964943,0.569482386112,,0.00276432861574,-0.0138274505734,-0.69028544426,-0.723399817944
1549646869579926528,,445961,,1549646869,579761359,"""world""",,,1.78283381462,-1.3222887516,0.569424271584,,0.00288609485142,-0.0134264752269,-0.690646290779,-0.723062336445
1549646869590226171,,445962,,1549646869,590047627,"""world""",,,1.78289854527,-1.32210242748,0.56943076849,,0.00272410456091,-0.0135198077187,-0.690899908543,-0.722818911076
1549646869600524091,,445963,,1549646869,600337673,"""world""",,,1.78310024738,-1.32215571404,0.569513380527,,0.00216634362005,-0.0136641608551,-0.691702008247,-0.722050607204
1549646869600548936,,445964,,1549646869,600361989,"""world""",,,1.78308951855,-1.32198011875,0.569441199303,,0.00256287842058,-0.0134838940576,-0.691247344017,-0.722487926483
1549646869609812910,,445965,,1549646869,609607558,"""world""",,,1.78322255611,-1.32212483883,0.569471120834,,0.00193765130825,-0.0135638508946,-0.691838622093,-0.721922278404
1549646869619996859,,445966,,1549646869,619852122,"""world""",,,1.78325605392,-1.32218694687,0.569447577,,0.0016284371959,-0.0133152129129,-0.69178712368,-0.721976876259
1549646869630323203,,445967,,1549646869,630123546,"""world""",,,1.78326952457,-1.32220876217,0.569436967373,,0.00143894914072,-0.0132345985621,-0.692068994045,-0.721708595753
1549646869640533463,,445968,,1549646869,640335563,"""world""",,,1.78331279755,-1.32213282585,0.569417476654,,0.00129042274784,-0.0131456954405,-0.692117393017,-0.721664130688
1549646869649742049,,445969,,1549646869,649534069,"""world""",,,1.78331196308,-1.32197010517,0.569413661957,,0.00134385330603,-0.0130546642467,-0.692116975784,-0.721666097641
1549646869649767167,,445970,,1549646869,649552866,"""world""",,,1.78334820271,-1.32166147232,0.569386005402,,0.000816079846118,-0.0131964441389,-0.691753089428,-0.722013115883
1549646869659930642,,445971,,1549646869,659770016,"""world""",,,1.78322947025,-1.32126677036,0.5694013834,,0.00204454176128,-0.0130865937099,-0.691737473011,-0.722027599812
1549646869670224779,,445972,,1549646869,670028330,"""world""",,,1.78321313858,-1.32096576691,0.569414138794,,0.00212371652015,-0.0131151070818,-0.692171275616,-0.721611022949
1549646869680491618,,445973,,1549646869,680325772,"""world""",,,1.78324401379,-1.32060658932,0.569449067116,,0.00214319955558,-0.0132703529671,-0.691980779171,-0.721790850163
1549646869690756352,,445974,,1549646869,690598690,"""world""",,,1.78340625763,-1.3202123642,0.569524943829,,0.00218064081855,-0.0140544967726,-0.691937983036,-0.721816837788
1549646869700143116,,445975,,1549646869,699935265,"""world""",,,1.78347837925,-1.31991803646,0.569553673267,,0.00201912829652,-0.0140168368816,-0.691818535328,-0.721932590008
1549646869700163043,,445976,,1549646869,699960858,"""world""",,,1.78359222412,-1.31961941719,0.569566488266,,0.00197470141575,-0.0140293547884,-0.691163599491,-0.722559511662
1549646869710511363,,445977,,1549646869,710342398,"""world""",,,1.78357720375,-1.31948244572,0.569556355476,,0.00174344540574,-0.0136425029486,-0.691341161728,-0.722397625446
1549646869719760152,,445978,,1549646869,719599262,"""world""",,,1.78364086151,-1.3192949295,0.56953638792,,0.0015708458377,-0.0134420646355,-0.690907478333,-0.72281652689
1549646869730050191,,445979,,1549646869,729836572,"""world""",,,1.78366541862,-1.31913459301,0.569508016109,,0.00149390008301,-0.0133211370558,-0.690825104713,-0.722897708416
1549646869740234611,,445980,,1549646869,740095826,"""world""",,,1.78364443779,-1.3189612627,0.569482147694,,0.00152479286771,-0.0130779948086,-0.690863549709,-0.722865283489
1549646869750543835,,445981,,1549646869,750349179,"""world""",,,1.78370976448,-1.3186480999,0.569464623928,,0.00161933712661,-0.0130457589403,-0.690453112125,-0.723257780075
1549646869750568423,,445982,,1549646869,750402188,"""world""",,,1.78376722336,-1.31833660603,0.569434821606,,0.00209100008942,-0.0130417495966,-0.690417766571,-0.723290324211
1549646869760803556,,445983,,1549646869,759579036,"""world""",,,1.78380298615,-1.31796860695,0.569455981255,,0.00225887913257,-0.0131512405351,-0.690527141094,-0.723183453083
1549646869770015065,,445984,,1549646869,769814327,"""world""",,,1.78384244442,-1.31756305695,0.569377660751,,0.00168799422681,-0.0125190578401,-0.690249085426,-0.72346162796
1549646869780242810,,445985,,1549646869,780052171,"""world""",,,1.78373527527,-1.31723618507,0.569317579269,,0.00202718167566,-0.0119029153138,-0.689745604992,-0.723951160908
1549646869790548104,,445986,,1549646869,790359050,"""world""",,,1.78369998932,-1.31687998772,0.569352149963,,0.00176981114782,-0.011979451403,-0.68962931633,-0.724061310291
1549646869799856652,,445987,,1549646869,799705226,"""world""",,,1.78366184235,-1.31659972668,0.569343984127,,0.00192541291472,-0.0120890885592,-0.689593493938,-0.724093258381
1549646869799871343,,445988,,1549646869,799723826,"""world""",,,1.78357553482,-1.31636571884,0.569334328175,,0.00202674977481,-0.011800840497,-0.689565360546,-0.724124491215
1549646869810258823,,445989,,1549646869,810054873,"""world""",,,1.78355252743,-1.31610035896,0.569360792637,,0.00216185534373,-0.012151055038,-0.689955592155,-0.723746538162
1549646869820458970,,445990,,1549646869,820295491,"""world""",,,1.78348946571,-1.31595051289,0.569373786449,,0.00200191815384,-0.0120034515858,-0.690112888813,-0.723599493504
1549646869831822604,,445991,,1549646869,830592866,"""world""",,,1.78351914883,-1.31572091579,0.569390654564,,0.00184782687575,-0.0123991444707,-0.690054237843,-0.723649084568
1549646869840401707,,445992,,1549646869,839978563,"""world""",,,1.78348457813,-1.31554567814,0.569402456284,,0.00175444828346,-0.0124330939725,-0.690265715122,-0.723447024822
1549646869850819665,,445993,,1549646869,850395242,"""world""",,,1.78348493576,-1.3153719902,0.569463193417,,0.0023072778713,-0.0129336891696,-0.690448880196,-0.723261892796
1549646869850877159,,445994,,1549646869,850437872,"""world""",,,1.7835007906,-1.31508743763,0.569437086582,,0.00175277085509,-0.0127012534067,-0.690338671207,-0.723372817039
1549646869860222266,,445995,,1549646869,859849741,"""world""",,,1.78359127045,-1.3148150444,0.569460332394,,0.0017241272144,-0.012935500592,-0.690551102161,-0.723165929317
1549646869870655709,,445996,,1549646869,870285437,"""world""",,,1.78364706039,-1.31458640099,0.569463968277,,0.00177400850225,-0.013009654358,-0.690594434738,-0.723123013973
1549646869879757716,,445997,,1549646869,879548747,"""world""",,,1.78370904922,-1.31434309483,0.569474339485,,0.00181817263365,-0.0130135146901,-0.690710306168,-0.723012268543
1549646869890072077,,445998,,1549646869,889847211,"""world""",,,1.78378295898,-1.31416904926,0.569457769394,,0.00178437237628,-0.0130017725751,-0.690857112408,-0.722872197628
1549646869900513266,,445999,,1549646869,900184049,"""world""",,,1.78384327888,-1.31405282021,0.56946015358,,0.00161938439123,-0.0130059244111,-0.690918147564,-0.722814261913
1549646869910781179,,446000,,1549646869,910541828,"""world""",,,1.78394126892,-1.31391382217,0.569454610348,,0.0015837023966,-0.013022496365,-0.690943837166,-0.722789466381
1549646869910805256,,446001,,1549646869,910575220,"""world""",,,1.78400349617,-1.31383955479,0.569431900978,,0.00161691079848,-0.0128342304379,-0.691010594368,-0.722728908062
1549646869920059907,,446002,,1549646869,919839553,"""world""",,,1.7840474844,-1.31377494335,0.569452881813,,0.00136945198756,-0.012980026193,-0.691032409668,-0.722706019878
1549646869930466417,,446003,,1549646869,930246594,"""world""",,,1.78409254551,-1.31374979019,0.569439768791,,0.00131167774089,-0.012841867283,-0.691048204899,-0.722693443298
1549646869939774007,,446004,,1549646869,939539817,"""world""",,,1.78414225578,-1.3137075901,0.569426655769,,0.00114934123121,-0.0127801848575,-0.691174149513,-0.722574412823
1549646869950157236,,446005,,1549646869,949859355,"""world""",,,1.7841616869,-1.31357836723,0.569418787956,,0.00110715569463,-0.0127558037639,-0.691201686859,-0.722548484802
1549646869950188316,,446006,,1549646869,949893600,"""world""",,,1.78415966034,-1.313408494,0.569434702396,,0.0010536708869,-0.0128091555089,-0.691518902779,-0.722244083881
1549646869960470397,,446007,,1549646869,960194051,"""world""",,,1.78418636322,-1.31315982342,0.569414436817,,0.000962721882388,-0.0125303566456,-0.691855609417,-0.721926569939
1549646869970742373,,446008,,1549646869,970526483,"""world""",,,1.78421974182,-1.31286776066,0.569419384003,,0.00100070738699,-0.0126530695707,-0.691728115082,-0.722046554089
1549646869980248639,,446009,,1549646869,979884827,"""world""",,,1.78416395187,-1.31270194054,0.569417357445,,0.00107289361767,-0.0123869339004,-0.691922128201,-0.721865177155
1549646869990743474,,446010,,1549646869,990344282,"""world""",,,1.78411626816,-1.31277966499,0.569347858429,,0.000666071602609,-0.0117975343019,-0.691745042801,-0.722045242786
1549646870000254761,,446011,,1549646869,999805244,"""world""",,,1.78408372402,-1.3128631115,0.569245815277,,0.000217761160457,-0.0112144956365,-0.691641628742,-0.722153782845
1549646870000287687,,446012,,1549646869,999859388,"""world""",,,1.78411722183,-1.31280303001,0.569237649441,,-0.000282434775727,-0.0108546549454,-0.691753447056,-0.722052156925
1549646870010665473,,446013,,1549646870,10270303,"""world""",,,1.78406250477,-1.31239712238,0.569237589836,,-0.00028281880077,-0.0104740466923,-0.691487014294,-0.722312986851
1549646870019823625,,446014,,1549646870,19540662,"""world""",,,1.78418123722,-1.31159043312,0.569314718246,,-0.000569740019273,-0.0105436099693,-0.691997885704,-0.72182238102
1549646870030001650,,446015,,1549646870,29828001,"""world""",,,1.78440916538,-1.31017291546,0.569310128689,,0.000385262770578,-0.0110920807347,-0.690573275089,-0.723177313805
1549646870040274884,,446016,,1549646870,40042770,"""world""",,,1.78454732895,-1.30880379677,0.569384098053,,0.000624674779829,-0.0116732586175,-0.690226972103,-0.723498523235
1549646870050474742,,446017,,1549646870,50263403,"""world""",,,1.7845954895,-1.30750155449,0.569473683834,,0.0010483636288,-0.0125445630401,-0.690738558769,-0.722995042801
1549646870050494564,,446018,,1549646870,50281793,"""world""",,,1.78467452526,-1.30623197556,0.569555997849,,0.00172969745472,-0.0133737428114,-0.690725445747,-0.722991406918
1549646870060759922,,446019,,1549646870,60556632,"""world""",,,1.78483939171,-1.30523657799,0.569727003574,,0.00184243777767,-0.0140579240397,-0.691661715508,-0.722082436085
1549646870070071744,,446020,,1549646870,69867968,"""world""",,,1.78471875191,-1.30414259434,0.569690942764,,0.00273522501811,-0.0138383721933,-0.690693080425,-0.723010480404
1549646870080324345,,446021,,1549646870,80125240,"""world""",,,1.78480279446,-1.30341434479,0.569757342339,,0.00281868432648,-0.0140356915072,-0.691163301468,-0.722556829453
1549646870090686639,,446022,,1549646870,90439443,"""world""",,,1.78481400013,-1.30283105373,0.569747745991,,0.00273607065901,-0.0136832864955,-0.691060006618,-0.722662746906
1549646870099923468,,446023,,1549646870,99698397,"""world""",,,1.78484725952,-1.30240035057,0.569683670998,,0.00191223016009,-0.0130008151755,-0.690426468849,-0.723283290863
1549646870110210861,,446024,,1549646870,109985123,"""world""",,,1.78484141827,-1.30218660831,0.569635272026,,0.00167921558022,-0.0126262232661,-0.690405368805,-0.72331058979
1549646870110233144,,446025,,1549646870,110008386,"""world""",,,1.78484487534,-1.30204582214,0.569571614265,,0.00128154433332,-0.0120638301596,-0.690415799618,-0.723311126232
1549646870120624495,,446026,,1549646870,120399308,"""world""",,,1.78490006924,-1.30185461044,0.569493472576,,0.00115750334226,-0.0121262706816,-0.691123187542,-0.722634375095
1549646870129752349,,446027,,1549646870,129544596,"""world""",,,1.78502345085,-1.30147135258,0.569446444511,,0.000936293916311,-0.0120584089309,-0.691196501255,-0.72256565094
1549646870140368684,,446028,,1549646870,139927601,"""world""",,,1.78516924381,-1.30085885525,0.569454491138,,0.000915945856832,-0.0118716554716,-0.691126525402,-0.722635686398
1549646870150726193,,446029,,1549646870,150359980,"""world""",,,1.78537094593,-1.3001652956,0.569497942924,,0.000814702303614,-0.0119708161801,-0.691046357155,-0.722710907459
1549646870150762189,,446030,,1549646870,150412861,"""world""",,,1.78555309772,-1.2994260788,0.569539308548,,0.00104418129195,-0.0118545936421,-0.690889835358,-0.722862124443
1549646870160158351,,446031,,1549646870,159829473,"""world""",,,1.78579080105,-1.29841423035,0.569593012333,,0.00105010636616,-0.0126146283001,-0.690768957138,-0.722964763641
1549646870170689837,,446032,,1549646870,170312117,"""world""",,,1.78600144386,-1.29740214348,0.569525897503,,0.0014154255623,-0.0131359593943,-0.690601527691,-0.723114788532
1549646870180968955,,446033,,1549646870,179631291,"""world""",,,1.78603351116,-1.29660749435,0.569443702698,,0.00181150867138,-0.0129522494972,-0.690204620361,-0.72349613905
1549646870190261329,,446034,,1549646870,190027622,"""world""",,,1.78619873524,-1.29595708847,0.569560170174,,0.00196766084991,-0.0136021682993,-0.690700769424,-0.723010063171
1549646870200908306,,446035,,1549646870,200433437,"""world""",,,1.78622198105,-1.2953389883,0.56958335638,,0.00183736858889,-0.0132760852575,-0.690602362156,-0.723110496998
1549646870200949884,,446036,,1549646870,200478478,"""world""",,,1.78617072105,-1.29490149021,0.569577336311,,0.00159066438209,-0.0130982827395,-0.690654635429,-0.723064422607
1549646870210284912,,446037,,1549646870,209882170,"""world""",,,1.7861096859,-1.29445528984,0.569551706314,,0.00159883592278,-0.0129242055118,-0.690304219723,-0.723402023315
1549646870222295310,,446038,,1549646870,220282634,"""world""",,,1.78602337837,-1.2941173315,0.569473147392,,0.00164151168428,-0.0125363385305,-0.690883994102,-0.722855091095
1549646870230018841,,446039,,1549646870,229596197,"""world""",,,1.78595066071,-1.29378402233,0.569452166557,,0.0017150741769,-0.012344289571,-0.69102871418,-0.722719848156
1549646870240526108,,446040,,1549646870,240234173,"""world""",,,1.78588759899,-1.29349505901,0.569444179535,,0.00148276449181,-0.0118568837643,-0.691111266613,-0.722649633884
1549646870250803729,,446041,,1549646870,250507227,"""world""",,,1.7858839035,-1.29302740097,0.569418072701,,0.00163502979558,-0.011926275678,-0.691358447075,-0.722411751747
1549646870250832684,,446042,,1549646870,250531422,"""world""",,,1.78594434261,-1.29240989685,0.569391787052,,0.00191814068239,-0.0119225718081,-0.691098153591,-0.722660064697
1549646870260054230,,446043,,1549646870,259771428,"""world""",,,1.78604459763,-1.29180169106,0.569359600544,,0.00215240311809,-0.0121319452301,-0.691047668457,-0.722704231739
1549646870270263962,,446044,,1549646870,270027838,"""world""",,,1.78619980812,-1.29109716415,0.56942909956,,0.00209898687899,-0.012708091177,-0.690801262856,-0.722929954529
1549646870280648414,,446045,,1549646870,280336429,"""world""",,,1.78629696369,-1.29037106037,0.569536268711,,0.00160095433239,-0.0127885667607,-0.69064694643,-0.723077237606
1549646870289787092,,446046,,1549646870,289555158,"""world""",,,1.78647994995,-1.28980410099,0.56963211298,,0.00135297747329,-0.0131428884342,-0.691120505333,-0.722618818283
1549646870300126388,,446047,,1549646870,299855598,"""world""",,,1.78645217419,-1.28923118114,0.569655895233,,0.00156493938994,-0.0129520157352,-0.691402077675,-0.722352385521
1549646870310783851,,446048,,1549646870,310516398,"""world""",,,1.78653967381,-1.28868985176,0.569645822048,,0.00133401609492,-0.012703535147,-0.691566884518,-0.722199499607
1549646870310817434,,446049,,1549646870,310541671,"""world""",,,1.78668057919,-1.28812968731,0.56970000267,,0.000878428632859,-0.0129543580115,-0.691524803638,-0.722236037254
1549646870320070957,,446050,,1549646870,319843850,"""world""",,,1.7868270874,-1.287581563,0.569729685783,,0.000542264664546,-0.0132032316178,-0.691761612892,-0.722005069256
1549646870330425775,,446051,,1549646870,330187944,"""world""",,,1.78685092926,-1.28705894947,0.569777786732,,0.000463606091216,-0.0131493126974,-0.692103922367,-0.721677958965
1549646870340753824,,446052,,1549646870,340484120,"""world""",,,1.78695952892,-1.28606283665,0.569401025772,,0.00432213302702,-0.0113635882735,-0.688036859035,-0.725573956966
1549646870349996712,,446053,,1549646870,349761012,"""world""",,,1.78685665131,-1.28555190563,0.569604933262,,0.001830102643,-0.0123263895512,-0.689987182617,-0.723714351654
1549646870350028732,,446054,,1549646870,349786129,"""world""",,,1.78692936897,-1.28495049477,0.56954741478,,0.00188024365343,-0.0124849639833,-0.690144836903,-0.723561167717
1549646870360464117,,446055,,1549646870,360143585,"""world""",,,1.78700184822,-1.28458726406,0.569552540779,,0.00132711289916,-0.0123458653688,-0.690156638622,-0.723553538322
1549646870370656718,,446056,,1549646870,370420261,"""world""",,,1.78706741333,-1.2844748497,0.569516837597,,0.000792061095126,-0.0117798214778,-0.690278351307,-0.723447620869
1549646870379919617,,446057,,1549646870,379721600,"""world""",,,1.78713309765,-1.28434753418,0.569459438324,,0.000207262608455,-0.0111565236002,-0.690379559994,-0.723361372948
1549646870390321730,,446058,,1549646870,390044167,"""world""",,,1.7872877121,-1.28385221958,0.569426298141,,-0.000187545942026,-0.0111585520208,-0.69026017189,-0.723475277424
1549646870400744750,,446059,,1549646870,400460290,"""world""",,,1.78744697571,-1.282995224,0.569442689419,,-0.000374242459657,-0.0111740557477,-0.69050526619,-0.723240971565
1549646870410087423,,446060,,1549646870,409787987,"""world""",,,1.78768837452,-1.28183448315,0.56950044632,,-0.00042600595043,-0.0115983523428,-0.691079735756,-0.722685337067
1549646870410120613,,446061,,1549646870,409823554,"""world""",,,1.78788244724,-1.28011655807,0.569441854954,,0.000447335420176,-0.0111509254202,-0.69106900692,-0.722702622414
1549646870420465778,,446062,,1549646870,420162002,"""world""",,,1.78813695908,-1.27830648422,0.569483995438,,0.0010822173208,-0.0115183340386,-0.690515220165,-0.723225355148
1549646870430740845,,446063,,1549646870,430482850,"""world""",,,1.78834033012,-1.27660930157,0.569606602192,,0.0014253287809,-0.0124770030379,-0.690754711628,-0.72298014164
1549646870440017407,,446064,,1549646870,439778344,"""world""",,,1.78847813606,-1.27500188351,0.569722592831,,0.00173915899359,-0.0130270281807,-0.690688610077,-0.723032951355
1549646870450380128,,446065,,1549646870,450050390,"""world""",,,1.78852641582,-1.27375233173,0.569839417934,,0.00180349231232,-0.0131584405899,-0.691274046898,-0.722470700741
1549646870450410381,,446066,,1549646870,450076591,"""world""",,,1.78847551346,-1.27265453339,0.569856584072,,0.00233495887369,-0.0128674460575,-0.691441059113,-0.722314536572
1549646870460619426,,446067,,1549646870,460342106,"""world""",,,1.78855085373,-1.27182555199,0.569947659969,,0.00163616694044,-0.0132735585794,-0.691053569317,-0.722679853439
1549646870469821983,,446068,,1549646870,469584147,"""world""",,,1.78850460052,-1.27113711834,0.569824874401,,0.00270056142472,-0.0127953756601,-0.691226959229,-0.72251945734
1549646870480304751,,446069,,1549646870,480052622,"""world""",,,1.78849959373,-1.27032721043,0.569744229317,,0.00168341607787,-0.0129538066685,-0.690046191216,-0.723647415638
1549646870490605087,,446070,,1549646870,490339282,"""world""",,,1.78844118118,-1.26962780952,0.569723069668,,0.00129339622799,-0.0127760022879,-0.689969182014,-0.723724842072
1549646870499802925,,446071,,1549646870,499577792,"""world""",,,1.78834402561,-1.26870405674,0.569803059101,,0.00148981262464,-0.0126246642321,-0.689977347851,-0.723719418049
1549646870510197561,,446072,,1549646870,509949390,"""world""",,,1.7882412672,-1.26789259911,0.569850802422,,0.00148891611025,-0.0122877350077,-0.68967461586,-0.72401368618
1549646870510228571,,446073,,1549646870,509976488,"""world""",,,1.78810405731,-1.26693165302,0.569825768471,,0.00175916485023,-0.0121782198548,-0.689834713936,-0.723862409592
1549646870520532446,,446074,,1549646870,520328699,"""world""",,,1.78814589977,-1.2656018734,0.569783091545,,0.00192888674792,-0.0127344084904,-0.689821898937,-0.723864555359
1549646870529782074,,446075,,1549646870,529556416,"""world""",,,1.78807532787,-1.26454722881,0.569739580154,,0.00222305115312,-0.0121802464128,-0.690844297409,-0.722897648811
1549646870540202939,,446076,,1549646870,539961278,"""world""",,,1.78817439079,-1.26341760159,0.569739818573,,0.00239081960171,-0.0118754180148,-0.690462708473,-0.723266601562
1549646870550559771,,446077,,1549646870,550294462,"""world""",,,1.78851950169,-1.2622846365,0.569823801517,,0.00232105748728,-0.0121826985851,-0.690215289593,-0.723497867584
1549646870550594824,,446078,,1549646870,550331207,"""world""",,,1.78868961334,-1.26123714447,0.569852054119,,0.00254539283924,-0.011996450834,-0.690031945705,-0.723675012589
1549646870559755081,,446079,,1549646870,559522572,"""world""",,,1.78882813454,-1.26011371613,0.569847881794,,0.00301595404744,-0.0123300449923,-0.690076053143,-0.723625659943
1549646870569996441,,446080,,1549646870,569769575,"""world""",,,1.78905320168,-1.25917518139,0.569880306721,,0.00263462169096,-0.0130662443116,-0.690185070038,-0.723510146141
1549646870580295292,,446081,,1549646870,580062597,"""world""",,,1.78922986984,-1.25841617584,0.569884777069,,0.0024562724866,-0.0130473459139,-0.690213620663,-0.723483920097
1549646870590660015,,446082,,1549646870,590445693,"""world""",,,1.78932356834,-1.25779628754,0.569974005222,,0.00286416662857,-0.0134150721133,-0.690632283688,-0.723076045513
1549646870599984174,,446083,,1549646870,599724512,"""world""",,,1.78936338425,-1.2572363615,0.569905161858,,0.00208986178041,-0.0123734474182,-0.691066324711,-0.722682476044
1549646870600007778,,446084,,1549646870,599756364,"""world""",,,1.78954911232,-1.25639140606,0.569902777672,,0.0027792903129,-0.0127094853669,-0.690907895565,-0.722825706005
1549646870610453030,,446085,,1549646870,610194551,"""world""",,,1.7898235321,-1.25572323799,0.570019364357,,0.00172844890039,-0.0129693700001,-0.692009449005,-0.721769928932
1549646870620780322,,446086,,1549646870,620522953,"""world""",,,1.78995299339,-1.25451862812,0.569929242134,,0.00222680997103,-0.012703422457,-0.690057277679,-0.723639905453
1549646870630046789,,446087,,1549646870,629847822,"""world""",,,1.79010951519,-1.25347626209,0.569910049438,,0.00256514409557,-0.0127396555617,-0.689833939075,-0.7238509655
1549646870640525125,,446088,,1549646870,640205148,"""world""",,,1.79021060467,-1.25243699551,0.570035398006,,0.00261342711747,-0.0132160661742,-0.690419435501,-0.723283827305
