rosbagTimestamp,header,seq,stamp,secs,nsecs,frame_id,pose,position,x,y,z,orientation,x,y,z,w
1549647511060625111,,522727,,1549647511,60305902,"""world""",,,1.84437036514,-1.39576399326,0.567551374435,,0.00167735200375,-0.0111345332116,-0.721619606018,-0.692198216915
1549647511067222410,,522728,,1549647511,60337325,"""world""",,,1.84435617924,-1.39577281475,0.567565083504,,0.0016055611195,-0.0110792871565,-0.721634030342,-0.692184329033
1549647511071245771,,522729,,1549647511,69689234,"""world""",,,1.8443582058,-1.39576148987,0.567578315735,,0.00160864368081,-0.0112837133929,-0.721626520157,-0.692188858986
1549647511080059076,,522730,,1549647511,79966046,"""world""",,,1.84434187412,-1.39574825764,0.56758838892,,0.00170490145683,-0.0115359611809,-0.721440374851,-0.692378401756
1549647511090347937,,522731,,1549647511,90239676,"""world""",,,1.84435427189,-1.39576125145,0.567565202713,,0.00165766128339,-0.0112094320357,-0.721667289734,-0.692147374153
1549647511100659643,,522732,,1549647511,100514237,"""world""",,,1.84435379505,-1.39577066898,0.567550301552,,0.00168899842538,-0.0111215384677,-0.721713840961,-0.692100226879
1549647511109932954,,522733,,1549647511,109785589,"""world""",,,1.84435677528,-1.39579236507,0.56756311655,,0.0017120577395,-0.0111888898537,-0.721792161465,-0.692017436028
1549647511109949449,,522734,,1549647511,109797901,"""world""",,,1.84435665607,-1.39577817917,0.567564845085,,0.00174893066287,-0.0111724706367,-0.721726834774,-0.692085683346
1549647511120127329,,522735,,1549647511,120022860,"""world""",,,1.84436547756,-1.39579379559,0.567567527294,,0.00171712355223,-0.0112007185817,-0.721830666065,-0.691976964474
1549647511130378250,,522736,,1549647511,130271491,"""world""",,,1.84435772896,-1.39578962326,0.567575871944,,0.00170773162972,-0.011150283739,-0.721745014191,-0.692067205906
1549647511140585626,,522737,,1549647511,140484197,"""world""",,,1.84437584877,-1.39579546452,0.56760430336,,0.0016910249833,-0.0112543925643,-0.721774220467,-0.692035138607
1549647511149832394,,522738,,1549647511,149694135,"""world""",,,1.84435594082,-1.39580011368,0.567589700222,,0.00171810796019,-0.0111670773476,-0.721713781357,-0.692099392414
1549647511160031910,,522739,,1549647511,159872325,"""world""",,,1.84435141087,-1.39579367638,0.567590534687,,0.00178829568904,-0.0113065633923,-0.721729576588,-0.692080497742
1549647511160054130,,522740,,1549647511,159884733,"""world""",,,1.84435391426,-1.3957426548,0.567752242088,,0.00215368089266,-0.0124809080735,-0.721206724644,-0.692604124546
1549647511170198144,,522741,,1549647511,170061388,"""world""",,,1.84434580803,-1.39580309391,0.567588686943,,0.0017999712145,-0.0112350471318,-0.721750676632,-0.692059636116
1549647511180460607,,522742,,1549647511,180250216,"""world""",,,1.84433495998,-1.39580214024,0.567602872849,,0.00173103448469,-0.0112553639337,-0.721755802631,-0.692054212093
1549647511190663910,,522743,,1549647511,190501371,"""world""",,,1.84433877468,-1.39577281475,0.567595720291,,0.00172370090149,-0.0112424017861,-0.721720278263,-0.692091405392
1549647511200012464,,522744,,1549647511,199877418,"""world""",,,1.84433567524,-1.39572608471,0.56773597002,,0.00208192504942,-0.0124070607126,-0.721164941788,-0.692649126053
1549647511210411609,,522745,,1549647511,210183926,"""world""",,,1.84435343742,-1.39577972889,0.567591190338,,0.00165392330382,-0.0112632345408,-0.721743345261,-0.692067265511
1549647511220619900,,522746,,1549647511,220439019,"""world""",,,1.84435367584,-1.39579188824,0.567584753036,,0.0016740586143,-0.01122273691,-0.721653223038,-0.692161798477
1549647511220643305,,522747,,1549647511,220458923,"""world""",,,1.84435200691,-1.39573025703,0.567737162113,,0.00205924455076,-0.0125199435279,-0.721180379391,-0.69263112545
1549647511229970544,,522748,,1549647511,229763841,"""world""",,,1.84436249733,-1.3957105875,0.567736506462,,0.00204257946461,-0.012483288534,-0.721123456955,-0.692691206932
1549647511240175809,,522749,,1549647511,239996834,"""world""",,,1.8443365097,-1.3957337141,0.567723155022,,0.00209589046426,-0.0124238580465,-0.721213936806,-0.692597806454
1549647511250560308,,522750,,1549647511,250310607,"""world""",,,1.84434378147,-1.39577639103,0.567566394806,,0.00172299821861,-0.0111689865589,-0.721596360207,-0.692221879959
1549647511260782433,,522751,,1549647511,260558825,"""world""",,,1.84434294701,-1.39577138424,0.567599356174,,0.00171551655512,-0.0115038324147,-0.721452057362,-0.692366778851
1549647511260903156,,522752,,1549647511,260587331,"""world""",,,1.84434139729,-1.39578270912,0.567591488361,,0.00165127962828,-0.0115252612159,-0.721435248852,-0.692383944988
1549647511270076647,,522753,,1549647511,269855741,"""world""",,,1.84433400631,-1.39577662945,0.567587971687,,0.00169469218235,-0.0115676578134,-0.721478581429,-0.692338109016
1549647511280322833,,522754,,1549647511,280113125,"""world""",,,1.84434819221,-1.39577293396,0.567603468895,,0.00177882891148,-0.0116313854232,-0.721474766731,-0.692340791225
1549647511290585152,,522755,,1549647511,290363007,"""world""",,,1.84435749054,-1.39579308033,0.567579805851,,0.00167747878004,-0.011359244585,-0.721593737602,-0.692221581936
1549647511299804112,,522756,,1549647511,299564507,"""world""",,,1.844373703,-1.39580011368,0.567578732967,,0.00175265385769,-0.0113784531131,-0.721703112125,-0.692107021809
1549647511310361665,,522757,,1549647511,310086853,"""world""",,,1.84436655045,-1.39580154419,0.567593514919,,0.00179115857463,-0.0117072118446,-0.721507847309,-0.692305028439
1549647511310388534,,522758,,1549647511,310107509,"""world""",,,1.84436047077,-1.39572179317,0.567725121975,,0.00211764057167,-0.0124925328419,-0.721083879471,-0.692731976509
1549647511320543553,,522759,,1549647511,320346900,"""world""",,,1.84437870979,-1.39571857452,0.567714750767,,0.0020523481071,-0.0125052658841,-0.721087396145,-0.692728221416
1549647511329732066,,522760,,1549647511,329509664,"""world""",,,1.84438252449,-1.39575576782,0.567605912685,,0.00174454541411,-0.011619284749,-0.721380889416,-0.692438900471
1549647511339932591,,522761,,1549647511,339771950,"""world""",,,1.84436821938,-1.39578640461,0.567570328712,,0.00169395015109,-0.0112414741889,-0.721693634987,-0.692119300365
1549647511350942918,,522762,,1549647511,350718690,"""world""",,,1.84438335896,-1.39576399326,0.567602515221,,0.00174813368358,-0.0116447042674,-0.721459329128,-0.692356705666
1549647511360415177,,522763,,1549647511,360206302,"""world""",,,1.84437632561,-1.39576923847,0.567576110363,,0.00172899290919,-0.0112562207505,-0.721608221531,-0.692208051682
1549647511360440073,,522764,,1549647511,360227651,"""world""",,,1.84437000751,-1.39576864243,0.567604482174,,0.0017030731542,-0.0116310827434,-0.721434652805,-0.692382752895
1549647511370814123,,522765,,1549647511,370562405,"""world""",,,1.84436786175,-1.39577138424,0.567603111267,,0.00173047615681,-0.0116681139916,-0.721368849277,-0.69245070219
1549647511379998388,,522766,,1549647511,379804800,"""world""",,,1.84437060356,-1.39576673508,0.567591786385,,0.00182892591693,-0.011663287878,-0.72139185667,-0.692426562309
1549647511390317271,,522767,,1549647511,390062530,"""world""",,,1.84435582161,-1.39578378201,0.567567586899,,0.00180603039917,-0.011301940307,-0.721612632275,-0.692202448845
1549647511400536151,,522768,,1549647511,400310376,"""world""",,,1.84435892105,-1.39577949047,0.567597925663,,0.00185702519957,-0.0116123808548,-0.721435248852,-0.69238203764
1549647511410748517,,522769,,1549647511,410532356,"""world""",,,1.84437739849,-1.39578723907,0.567556619644,,0.00172268156894,-0.0111880945042,-0.721519589424,-0.692301511765
1549647511410771909,,522770,,1549647511,410553092,"""world""",,,1.84436583519,-1.39580118656,0.567592799664,,0.00171075051185,-0.0115734189749,-0.721382975578,-0.692437648773
1549647511420090251,,522771,,1549647511,419884772,"""world""",,,1.84435856342,-1.39578258991,0.567589700222,,0.00168648874387,-0.0115471538156,-0.721432685852,-0.692386209965
1549647511430377797,,522772,,1549647511,430158431,"""world""",,,1.84435629845,-1.39577245712,0.567591130733,,0.00173734535929,-0.0114854443818,-0.721326231956,-0.692498087883
1549647511440626460,,522773,,1549647511,440390926,"""world""",,,1.84435117245,-1.39576649666,0.5675573349,,0.00177717860788,-0.0112012876198,-0.721492886543,-0.692328989506
1549647511449791265,,522774,,1549647511,449596270,"""world""",,,1.84435939789,-1.3957824707,0.567550063133,,0.00179158593528,-0.0112335914746,-0.721628844738,-0.692186772823
1549647511460066748,,522775,,1549647511,459830406,"""world""",,,1.84435856342,-1.39578676224,0.56754565239,,0.00181097956374,-0.0112107144669,-0.721608400345,-0.6922082901
1549647511460091270,,522776,,1549647511,459850404,"""world""",,,1.84434878826,-1.39577710629,0.567544221878,,0.00184577575419,-0.0112570356578,-0.721562385559,-0.692255437374
1549647511470253823,,522777,,1549647511,470058361,"""world""",,,1.84435927868,-1.39578258991,0.567589402199,,0.00179908971768,-0.0117210866883,-0.721476197243,-0.692337810993
1549647511480872914,,522778,,1549647511,480495460,"""world""",,,1.84435009956,-1.3957760334,0.567579030991,,0.00183524168096,-0.0115797501057,-0.721423387527,-0.692394971848
1549647511490179816,,522779,,1549647511,489858126,"""world""",,,1.84435391426,-1.39577710629,0.567553639412,,0.00171599397436,-0.011249050498,-0.721585333347,-0.692232072353
1549647511500607518,,522780,,1549647511,500276231,"""world""",,,1.84436833858,-1.39575111866,0.567583799362,,0.00172452221159,-0.0116173857823,-0.721351802349,-0.692469239235
1549647511510373656,,522781,,1549647511,509889620,"""world""",,,1.84436678886,-1.3957464695,0.567575931549,,0.00177085550968,-0.011613749899,-0.721419870853,-0.692398309708
1549647511510415458,,522782,,1549647511,510027156,"""world""",,,1.84436810017,-1.39574337006,0.567602157593,,0.00173894281033,-0.0116906324401,-0.72140622139,-0.69241130352
1549647511520680752,,522783,,1549647511,520448490,"""world""",,,1.84436881542,-1.39573419094,0.567593812943,,0.00173661392182,-0.0116192419082,-0.721416115761,-0.69240218401
1549647511530024532,,522784,,1549647511,529897913,"""world""",,,1.84438180923,-1.3957233429,0.567581057549,,0.00162525544874,-0.0113801583648,-0.721575200558,-0.692240715027
1549647511540300391,,522785,,1549647511,540169628,"""world""",,,1.84435939789,-1.39572620392,0.567601501942,,0.00178703153506,-0.0116172395647,-0.721410930157,-0.692407488823
1549647511550537740,,522786,,1549647511,550402283,"""world""",,,1.84436988831,-1.39572989941,0.567603588104,,0.00174978480209,-0.0117488540709,-0.721327066422,-0.69249278307
1549647511559692217,,522787,,1549647511,559553890,"""world""",,,1.84437036514,-1.39574038982,0.567602455616,,0.00171393179335,-0.011686803773,-0.721399962902,-0.692418038845
1549647511559705857,,522788,,1549647511,559576939,"""world""",,,1.8443672657,-1.39574801922,0.567601561546,,0.00173288607039,-0.0117032676935,-0.721383810043,-0.692434489727
1549647511570287507,,522789,,1549647511,569947348,"""world""",,,1.84436905384,-1.39573872089,0.567594051361,,0.00175730965566,-0.0117159113288,-0.721321463585,-0.692499160767
1549647511580747486,,522790,,1549647511,580396858,"""world""",,,1.84435594082,-1.39576244354,0.567579329014,,0.00180812878534,-0.011608353816,-0.721431493759,-0.69238615036
1549647511590146216,,522791,,1549647511,589805221,"""world""",,,1.84436583519,-1.39574742317,0.567581653595,,0.00177957781125,-0.0116470018402,-0.721444189548,-0.692372441292
1549647511600667350,,522792,,1549647511,600228981,"""world""",,,1.84435772896,-1.39573442936,0.567565083504,,0.00178369088098,-0.0116041712463,-0.721295297146,-0.692528188229
1549647511611150442,,522793,,1549647511,610666865,"""world""",,,1.84437453747,-1.3957490921,0.567584574223,,0.00165520119481,-0.0116123994812,-0.721412837505,-0.692405939102
1549647511611192475,,522794,,1549647511,610729485,"""world""",,,1.84437036514,-1.3957669735,0.567582428455,,0.00165783858392,-0.0116354841739,-0.721389472485,-0.692429900169
1549647511620538364,,522795,,1549647511,620149511,"""world""",,,1.84435796738,-1.39575898647,0.567574381828,,0.00173573102802,-0.0115961181,-0.721305727959,-0.692517578602
1549647511631033386,,522796,,1549647511,630552029,"""world""",,,1.84436023235,-1.39578354359,0.567581355572,,0.00169147970155,-0.0115598235279,-0.721340954304,-0.692481637001
1549647511640325199,,522797,,1549647511,639961150,"""world""",,,1.84436821938,-1.39576160908,0.567554235458,,0.00161172437947,-0.0112634412944,-0.721411824226,-0.692412853241
1549647511650912108,,522798,,1549647511,650545623,"""world""",,,1.84436571598,-1.39574038982,0.567547559738,,0.0017018673243,-0.0112656541169,-0.721472263336,-0.692349672318
1549647511660545944,,522799,,1549647511,659982691,"""world""",,,1.84437823296,-1.39575493336,0.567539453506,,0.0016332421219,-0.0112684769556,-0.72161847353,-0.69219738245
1549647511660605539,,522800,,1549647511,660026201,"""world""",,,1.84437036514,-1.39574062824,0.567560493946,,0.00172178098001,-0.011652380228,-0.721433281898,-0.692383766174
1549647511670772622,,522801,,1549647511,670427833,"""world""",,,1.8443608284,-1.39574408531,0.567570149899,,0.00169677170925,-0.011651493609,-0.721418559551,-0.692399263382
1549647511680033347,,522802,,1549647511,679769808,"""world""",,,1.84435975552,-1.39574408531,0.56756144762,,0.00168932822999,-0.01153962221,-0.721380650997,-0.692440629005
1549647511690231671,,522803,,1549647511,690019527,"""world""",,,1.84435319901,-1.39574670792,0.567557215691,,0.00170168513432,-0.0115889403969,-0.721350848675,-0.692470788956
1549647511700383028,,522804,,1549647511,700246532,"""world""",,,1.84435999393,-1.39575147629,0.567569613457,,0.00168588047381,-0.0116056157276,-0.721444070339,-0.692373454571
1549647511710652836,,522805,,1549647511,710490605,"""world""",,,1.84435498714,-1.3957709074,0.567518889904,,0.00161350821145,-0.0111891031265,-0.721659839153,-0.692155599594
1549647511710674031,,522806,,1549647511,710512972,"""world""",,,1.84437131882,-1.39577579498,0.567535161972,,0.00154351873789,-0.0112423431128,-0.721648812294,-0.692166388035
1549647511719947560,,522807,,1549647511,719762607,"""world""",,,1.84436798096,-1.39576756954,0.567541539669,,0.00157102744561,-0.0112012112513,-0.721636474133,-0.69217979908
1549647511730268857,,522808,,1549647511,730093556,"""world""",,,1.84437179565,-1.39576971531,0.567551136017,,0.00155874993652,-0.0112519618124,-0.721682965755,-0.692130565643
1549647511740711061,,522809,,1549647511,740530818,"""world""",,,1.84435987473,-1.39578545094,0.567541480064,,0.00166581489611,-0.0111778574064,-0.721706449986,-0.692106962204
1549647511749995039,,522810,,1549647511,749806058,"""world""",,,1.84437692165,-1.39577794075,0.567546129227,,0.00159307895228,-0.0111308386549,-0.721566855907,-0.692253410816
1549647511760264911,,522811,,1549647511,760088741,"""world""",,,1.84437167645,-1.39579081535,0.567551672459,,0.00158769695554,-0.0111712738872,-0.721649885178,-0.69216632843
1549647511760288772,,522812,,1549647511,760113569,"""world""",,,1.84437561035,-1.39577829838,0.567548751831,,0.00163515738677,-0.011317894794,-0.721598923206,-0.692216932774
1549647511770602355,,522813,,1549647511,770421199,"""world""",,,1.84438657761,-1.39574217796,0.567553162575,,0.00167314114515,-0.01147775352,-0.721565544605,-0.692249000072
1549647511779868206,,522814,,1549647511,779712839,"""world""",,,1.84435653687,-1.39575791359,0.567573010921,,0.00172692560591,-0.0116466423497,-0.721480369568,-0.692334771156
1549647511790177379,,522815,,1549647511,790012242,"""world""",,,1.84436786175,-1.39574861526,0.567546904087,,0.00179764453787,-0.0113714057952,-0.721564888954,-0.692251205444
1549647511800434641,,522816,,1549647511,800273869,"""world""",,,1.84436500072,-1.39577722549,0.567542552948,,0.00182371539995,-0.0113559337333,-0.721674740314,-0.692136764526
1549647511810743325,,522817,,1549647511,810510731,"""world""",,,1.84435737133,-1.39579570293,0.567549169064,,0.00168968026992,-0.0112854028121,-0.721810042858,-0.691997170448
1549647511810761830,,522818,,1549647511,810530196,"""world""",,,1.84435772896,-1.39578461647,0.567536592484,,0.00172836403362,-0.0110529987141,-0.721753716469,-0.692059576511
1549647511819997500,,522819,,1549647511,819818765,"""world""",,,1.84437155724,-1.39578938484,0.567533016205,,0.00160730700009,-0.0111572798342,-0.721732974052,-0.692079901695
1549647511830282779,,522820,,1549647511,830081650,"""world""",,,1.84436070919,-1.39579117298,0.567542076111,,0.00161378423218,-0.0111298952252,-0.721639633179,-0.692177593708
1549647511840550710,,522821,,1549647511,840304097,"""world""",,,1.84435606003,-1.39579415321,0.567541658878,,0.0015871161595,-0.0111389607191,-0.721688330173,-0.692126810551
1549647511850710712,,522822,,1549647511,850550004,"""world""",,,1.84435021877,-1.39580094814,0.567527413368,,0.00157089240383,-0.0110152624547,-0.721570014954,-0.692252159119
1549647511859959814,,522823,,1549647511,859782675,"""world""",,,1.84434485435,-1.39578223228,0.567519724369,,0.00160542351659,-0.011023809202,-0.721606731415,-0.692213594913
1549647511859981998,,522824,,1549647511,859804761,"""world""",,,1.8443595171,-1.39577436447,0.567530751228,,0.00166351313237,-0.0111419986933,-0.721682608128,-0.692132532597
1549647511870303868,,522825,,1549647511,870140282,"""world""",,,1.84434866905,-1.39575886726,0.567521452904,,0.00165585544892,-0.0112203471363,-0.721581101418,-0.692237079144
1549647511880535729,,522826,,1549647511,880375984,"""world""",,,1.84435391426,-1.39576089382,0.567522644997,,0.00166566239204,-0.0112268757075,-0.721676647663,-0.692137360573
1549647511889711226,,522827,,1549647511,889530303,"""world""",,,1.84435200691,-1.3957657814,0.567517399788,,0.00163318694104,-0.0112247131765,-0.72167378664,-0.69214040041
1549647511900008832,,522828,,1549647511,899808067,"""world""",,,1.84435641766,-1.39576375484,0.567532479763,,0.00170604255982,-0.0112962657586,-0.721613407135,-0.692202031612
1549647511910661692,,522829,,1549647511,910154987,"""world""",,,1.84435522556,-1.39576637745,0.567564964294,,0.00170572171919,-0.0116441706195,-0.721385896206,-0.692433357239
1549647511910702817,,522830,,1549647511,910215339,"""world""",,,1.844368577,-1.39576852322,0.567534387112,,0.00159212609287,-0.0112582668662,-0.721488714218,-0.692332923412
1549647511920474551,,522831,,1549647511,920081786,"""world""",,,1.84435510635,-1.39578950405,0.567529022694,,0.00164513115305,-0.0112664261833,-0.721577763557,-0.692239880562
1549647511930954092,,522832,,1549647511,930537716,"""world""",,,1.84435176849,-1.39578902721,0.567534923553,,0.0016831032699,-0.0111975977197,-0.721578896046,-0.692239642143
1549647511940451952,,522833,,1549647511,940032732,"""world""",,,1.8443530798,-1.39577305317,0.567541122437,,0.00167275895365,-0.0113261332735,-0.721502900124,-0.692316770554
1549647511950919382,,522834,,1549647511,950569083,"""world""",,,1.84435582161,-1.39578902721,0.567544639111,,0.00174115679692,-0.0113549726084,-0.721639871597,-0.692173421383
1549647511960437521,,522835,,1549647511,959967493,"""world""",,,1.84435963631,-1.39576864243,0.567540228367,,0.00179331819527,-0.0112467138097,-0.721579194069,-0.692238330841
1549647511960575076,,522836,,1549647511,960025534,"""world""",,,1.84435963631,-1.39576864243,0.567546248436,,0.0017423738027,-0.0112926475704,-0.721604883671,-0.692210912704
1549647511971054034,,522837,,1549647511,970492026,"""world""",,,1.84435045719,-1.39577782154,0.567570209503,,0.00175287143793,-0.0117197372019,-0.721413850784,-0.692402839661
1549647511980326731,,522838,,1549647511,979963778,"""world""",,,1.84436273575,-1.39577782154,0.567555010319,,0.00160479382612,-0.0113256881014,-0.721537232399,-0.692281246185
1549647511990733566,,522839,,1549647511,990480554,"""world""",,,1.84436070919,-1.39578032494,0.567545950413,,0.00164896121714,-0.0113034341484,-0.721521675587,-0.692297577858
1549647511999985387,,522840,,1549647511,999793371,"""world""",,,1.84436583519,-1.39577019215,0.567565798759,,0.00171063269954,-0.0116341225803,-0.721373856068,-0.692445993423
1549647512010327740,,522841,,1549647512,10119153,"""world""",,,1.84434020519,-1.39577257633,0.567574858665,,0.00173802301288,-0.0115659600124,-0.721314132214,-0.692509412766
1549647512010352025,,522842,,1549647512,10137311,"""world""",,,1.84434950352,-1.39578640461,0.567586004734,,0.00170804606751,-0.0116849252954,-0.721404492855,-0.692413270473
1549647512020652418,,522843,,1549647512,20455420,"""world""",,,1.84434902668,-1.3957887888,0.567581951618,,0.00172448263038,-0.0116894291714,-0.721353232861,-0.692466616631
1549647512029981905,,522844,,1549647512,29798455,"""world""",,,1.84434556961,-1.39580214024,0.567586123943,,0.00175475678407,-0.0116633297876,-0.721407532692,-0.692410409451
1549647512040607060,,522845,,1549647512,40179920,"""world""",,,1.84435284138,-1.39581775665,0.567591667175,,0.00170266127679,-0.0116857010871,-0.721461057663,-0.692354261875
1549647512051023075,,522846,,1549647512,50646229,"""world""",,,1.84434819221,-1.39583230019,0.567567944527,,0.00176981987897,-0.0112857790664,-0.721654474735,-0.692159235477
1549647512060494294,,522847,,1549647512,60058029,"""world""",,,1.84435331821,-1.39583492279,0.567555546761,,0.00171099684667,-0.0113467043266,-0.721592724323,-0.692222833633
1549647512060545244,,522848,,1549647512,60100330,"""world""",,,1.84434854984,-1.3958530426,0.567562818527,,0.00173329922836,-0.0113252643496,-0.721686422825,-0.692125380039
1549647512070999284,,522849,,1549647512,70517483,"""world""",,,1.84435641766,-1.39583170414,0.567555546761,,0.00178916298319,-0.0114304609597,-0.721606791019,-0.692206501961
1549647512080391708,,522850,,1549647512,79969992,"""world""",,,1.84434318542,-1.39583230019,0.567585229874,,0.00190301798284,-0.0118433935568,-0.721469819546,-0.692341983318
1549647512091084057,,522851,,1549647512,90663366,"""world""",,,1.84432899952,-1.39582681656,0.567577600479,,0.00191189732868,-0.0117903277278,-0.721387922764,-0.692428231239
1549647512100510193,,522852,,1549647512,100096629,"""world""",,,1.84431946278,-1.39583146572,0.567529678345,,0.00180757243652,-0.011240363121,-0.721566021442,-0.692252099514
1549647512110746205,,522853,,1549647512,110443719,"""world""",,,1.84433782101,-1.39582037926,0.567540824413,,0.00176599773113,-0.0112623870373,-0.721491515636,-0.692329525948
1549647512110782423,,522854,,1549647512,110481646,"""world""",,,1.84433865547,-1.39582264423,0.5675791502,,0.00184990849812,-0.0116298682988,-0.721374332905,-0.692445278168
1549647512120188076,,522855,,1549647512,119804591,"""world""",,,1.84432268143,-1.39582788944,0.567576646805,,0.00182780472096,-0.0116303283721,-0.721418380737,-0.692399442196
1549647512130447071,,522856,,1549647512,130125336,"""world""",,,1.84431350231,-1.39581680298,0.56758493185,,0.00184561498463,-0.0116589376703,-0.721370756626,-0.692448556423
1549647512140934827,,522857,,1549647512,140587785,"""world""",,,1.84431302547,-1.395809412,0.567575871944,,0.00178525701631,-0.0116438502446,-0.721389949322,-0.6924290061
1549647512150126396,,522858,,1549647512,149885278,"""world""",,,1.8443043232,-1.3957965374,0.567584633827,,0.00160631677136,-0.0115019716322,-0.721332490444,-0.692491650581
1549647512160471241,,522859,,1549647512,160211460,"""world""",,,1.84432446957,-1.39577996731,0.567586362362,,0.00155744468793,-0.0115906102583,-0.721331000328,-0.692491769791
1549647512160498365,,522860,,1549647512,160248003,"""world""",,,1.84432542324,-1.39576244354,0.567587852478,,0.00159416615497,-0.011564581655,-0.721353709698,-0.692468523979
1549647512170755128,,522861,,1549647512,170542003,"""world""",,,1.84432351589,-1.39577114582,0.567593216896,,0.00153829960618,-0.0114806545898,-0.721341013908,-0.692483186722
1549647512180129198,,522862,,1549647512,179881706,"""world""",,,1.84432160854,-1.39577555656,0.56760519743,,0.00148957886267,-0.0116381105036,-0.721485435963,-0.692330241203
1549647512190428524,,522863,,1549647512,190195277,"""world""",,,1.84432399273,-1.39578402042,0.567603111267,,0.00153962813783,-0.0115852896124,-0.721496284008,-0.692319750786
1549647512200708729,,522864,,1549647512,200469298,"""world""",,,1.84434151649,-1.39576423168,0.567599356174,,0.00158688379452,-0.0116547718644,-0.72138273716,-0.692436814308
1549647512210030959,,522865,,1549647512,209786233,"""world""",,,1.84433364868,-1.39575529099,0.567594468594,,0.00161535129882,-0.0116518689319,-0.72139698267,-0.692421913147
1549647512210054997,,522866,,1549647512,209821327,"""world""",,,1.84434378147,-1.3957644701,0.567596018314,,0.00170044857077,-0.0117074605078,-0.721437096596,-0.692378878593
1549647512220188353,,522867,,1549647512,219962812,"""world""",,,1.84434187412,-1.39578974247,0.56756991148,,0.00160686310846,-0.0112904859707,-0.721693098545,-0.692119240761
1549647512230520833,,522868,,1549647512,230231576,"""world""",,,1.84434902668,-1.39576923847,0.567587554455,,0.0017519913381,-0.0116394758224,-0.721532285213,-0.692280828953
1549647512240722084,,522869,,1549647512,240483320,"""world""",,,1.84434640408,-1.39576256275,0.567585170269,,0.00172604701947,-0.0116385119036,-0.721462786198,-0.692353248596
1549647512249994677,,522870,,1549647512,249744727,"""world""",,,1.84433925152,-1.39577233791,0.567581534386,,0.00165902846493,-0.011475821957,-0.721452474594,-0.692366957664
1549647512260268326,,522871,,1549647512,260000714,"""world""",,,1.84433758259,-1.39574062824,0.567577958107,,0.00164167163894,-0.0115397833288,-0.721428930759,-0.692390441895
1549647512260297544,,522872,,1549647512,260027045,"""world""",,,1.84432482719,-1.39573705196,0.567574501038,,0.00158728007227,-0.0114925503731,-0.721420586109,-0.692400038242
1549647512270540358,,522873,,1549647512,270266255,"""world""",,,1.84433162212,-1.39572608471,0.567579507828,,0.00170116045047,-0.0117512345314,-0.721419095993,-0.692396938801
1549647512280858795,,522874,,1549647512,280569381,"""world""",,,1.84433996677,-1.39573645592,0.567582368851,,0.00172692816705,-0.0117237465456,-0.721444249153,-0.69237112999
1549647512290110578,,522875,,1549647512,289875058,"""world""",,,1.84433448315,-1.3957477808,0.567581892014,,0.00176345813088,-0.0116386935115,-0.72139531374,-0.692423462868
1549647512300423088,,522876,,1549647512,300182059,"""world""",,,1.84433746338,-1.39577662945,0.567553162575,,0.00151826557703,-0.011179513298,-0.721766233444,-0.692044973373
1549647512310057788,,522877,,1549647512,309835541,"""world""",,,1.84433960915,-1.39575111866,0.567591965199,,0.00165325123817,-0.0115375164896,-0.721523165703,-0.692292273045
1549647512320442228,,522878,,1549647512,320175723,"""world""",,,1.84433627129,-1.39574825764,0.567600727081,,0.00167354382575,-0.0115932868794,-0.721469521523,-0.692347168922
1549647512320637439,,522879,,1549647512,320208556,"""world""",,,1.84432768822,-1.3957580328,0.56757158041,,0.00155329250265,-0.0112205175683,-0.721607327461,-0.692209899426
1549647512330778035,,522880,,1549647512,330556514,"""world""",,,1.8443416357,-1.39576685429,0.567566692829,,0.00150894653052,-0.0112235890701,-0.721663117409,-0.692151904106
1549647512340323269,,522881,,1549647512,339931930,"""world""",,,1.84433019161,-1.39575111866,0.567568659782,,0.0015986392973,-0.0111749758944,-0.721469342709,-0.692354381084
1549647512350693971,,522882,,1549647512,350310943,"""world""",,,1.84432673454,-1.39574980736,0.567564427853,,0.00167625455651,-0.0112724471837,-0.721509933472,-0.692310273647
1549647512360089948,,522883,,1549647512,359672963,"""world""",,,1.84433794022,-1.39572131634,0.567608773708,,0.00167062226683,-0.0117103867233,-0.721234619617,-0.692589879036
1549647512360134676,,522884,,1549647512,359726527,"""world""",,,1.84434902668,-1.39572632313,0.567607700825,,0.00160285481252,-0.0116562647745,-0.721289098263,-0.692534327507
1549647512370465202,,522885,,1549647512,370130187,"""world""",,,1.8443762064,-1.39572429657,0.56760007143,,0.00152342789806,-0.0115532316267,-0.72120308876,-0.692625641823
1549647512381032957,,522886,,1549647512,380562224,"""world""",,,1.84433698654,-1.39570248127,0.567571222782,,0.00186846253928,-0.0112465256825,-0.72145485878,-0.69236767292
1549647512390201994,,522887,,1549647512,389939044,"""world""",,,1.84435713291,-1.39570188522,0.567612230778,,0.00189620978199,-0.0118024246767,-0.721301734447,-0.69251781702
1549647512400434596,,522888,,1549647512,400197920,"""world""",,,1.84436058998,-1.39572823048,0.567584693432,,0.00178357143886,-0.0113442558795,-0.721488296986,-0.692331492901
1549647512410679185,,522889,,1549647512,410445483,"""world""",,,1.84435904026,-1.39573585987,0.567568182945,,0.00175977195613,-0.011337229982,-0.721477091312,-0.692343354225
1549647512410750403,,522890,,1549647512,410465434,"""world""",,,1.84434890747,-1.3957477808,0.56759506464,,0.00174051814247,-0.0116160744801,-0.721252799034,-0.692572414875
1549647512419946489,,522891,,1549647512,419754554,"""world""",,,1.84433841705,-1.39576089382,0.567598283291,,0.00170730205718,-0.0115534579381,-0.721326887608,-0.692496418953
1549647512430261949,,522892,,1549647512,430080150,"""world""",,,1.84433686733,-1.39576268196,0.567601799965,,0.00172888918314,-0.0116393147036,-0.721379637718,-0.69243991375
1549647512440471320,,522893,,1549647512,440313448,"""world""",,,1.84434461594,-1.39577794075,0.567593336105,,0.0015674358001,-0.0115957912058,-0.721360981464,-0.692460477352
1549647512449729391,,522894,,1549647512,449527240,"""world""",,,1.84434866905,-1.39573216438,0.56770670414,,0.00200828560628,-0.0124106174335,-0.721133887768,-0.692681670189
1549647512460066717,,522895,,1549647512,459837105,"""world""",,,1.84434807301,-1.39573645592,0.567710459232,,0.00202528969385,-0.0124840233475,-0.7210958004,-0.692719936371
1549647512469752253,,522896,,1549647512,469575502,"""world""",,,1.84435665607,-1.39571714401,0.567719995975,,0.00197703950107,-0.0124896094203,-0.721077680588,-0.692738831043
1549647512469813307,,522897,,1549647512,469599536,"""world""",,,1.84437119961,-1.39575517178,0.567594945431,,0.00165112712421,-0.0116307828575,-0.721321880817,-0.692500352859
1549647512480051003,,522898,,1549647512,479884165,"""world""",,,1.84434902668,-1.39572000504,0.567712426186,,0.00217736745253,-0.0125122247264,-0.720996797085,-0.692822039127
1549647512490328094,,522899,,1549647512,490136552,"""world""",,,1.84435963631,-1.39574337006,0.567723989487,,0.00203048950061,-0.0124991713092,-0.721195876598,-0.692615509033
1549647512500584722,,522900,,1549647512,500379959,"""world""",,,1.8443582058,-1.39572274685,0.567708849907,,0.00206321012229,-0.0124841071665,-0.72104883194,-0.692768752575
1549647512509749214,,522901,,1549647512,509562353,"""world""",,,1.84434866905,-1.39574456215,0.567727088928,,0.00203247368336,-0.0125175137073,-0.721141755581,-0.69267141819
1549647512520205441,,522902,,1549647512,519987853,"""world""",,,1.84434974194,-1.39577817917,0.567572712898,,0.00168316147756,-0.0112298168242,-0.72158229351,-0.692235589027
1549647512520231853,,522903,,1549647512,520007214,"""world""",,,1.84435546398,-1.3957901001,0.567575514317,,0.00159705651458,-0.0112249609083,-0.721763432026,-0.692047059536
1549647512530405375,,522904,,1549647512,530223704,"""world""",,,1.84433293343,-1.39579808712,0.567561626434,,0.0016572723398,-0.0110971480608,-0.721740067005,-0.69207328558
1549647512540712901,,522905,,1549647512,540500527,"""world""",,,1.84434425831,-1.39579439163,0.567587077618,,0.00166267156601,-0.0112189995125,-0.721679568291,-0.692134380341
1549647512549930249,,522906,,1549647512,549735240,"""world""",,,1.84435772896,-1.39580392838,0.567614555359,,0.0016257999232,-0.0115137221292,-0.721477746964,-0.69233995676
1549647512560168780,,522907,,1549647512,560018595,"""world""",,,1.84434056282,-1.39579546452,0.56761944294,,0.00165692181326,-0.011656800285,-0.721557080746,-0.692254900932
1549647512570425530,,522908,,1549647512,570250674,"""world""",,,1.84434902668,-1.39575171471,0.567751228809,,0.00195177993737,-0.0125233065337,-0.721310853958,-0.692495524883
1549647512570446221,,522909,,1549647512,570276531,"""world""",,,1.84435045719,-1.3957862854,0.56763279438,,0.00164884713013,-0.0116284852847,-0.721474409103,-0.692341506481
1549647512580892365,,522910,,1549647512,580516611,"""world""",,,1.84434509277,-1.39578390121,0.5676202178,,0.00179287046194,-0.0116786435246,-0.721437811852,-0.692378401756
1549647512589979858,,522911,,1549647512,589806476,"""world""",,,1.84434044361,-1.3957747221,0.567733347416,,0.00202683964744,-0.012387258932,-0.721300244331,-0.692508757114
1549647512600248624,,522912,,1549647512,600057987,"""world""",,,1.84433555603,-1.39580571651,0.567611634731,,0.00177527382039,-0.0116103040054,-0.72147744894,-0.692338347435
1549647512610503724,,522913,,1549647512,610276948,"""world""",,,1.84434700012,-1.39577102661,0.567621171474,,0.00174070394132,-0.0116550242528,-0.721381008625,-0.69243812561
1549647512610528106,,522914,,1549647512,610299832,"""world""",,,1.84434008598,-1.39578270912,0.5676009655,,0.00183187588118,-0.0116567965597,-0.721396446228,-0.692421793938
1549647512620820277,,522915,,1549647512,620628490,"""world""",,,1.84434473515,-1.39576745033,0.567625403404,,0.00183409114834,-0.0118245379999,-0.721410036087,-0.692404806614
1549647512630214201,,522916,,1549647512,630003727,"""world""",,,1.84433460236,-1.39575350285,0.567614614964,,0.00176362565253,-0.0116139613092,-0.721289932728,-0.692533671856
1549647512640447271,,522917,,1549647512,640236821,"""world""",,,1.84435474873,-1.39575791359,0.567624926567,,0.00155070167966,-0.0116357374936,-0.721340537071,-0.692481160164
1549647512650685001,,522918,,1549647512,650476938,"""world""",,,1.84435725212,-1.39576542377,0.567600548267,,0.00159103842452,-0.0112349828705,-0.721562743187,-0.692256093025
1549647512659924824,,522919,,1549647512,659735153,"""world""",,,1.84435105324,-1.39577960968,0.567609190941,,0.00168514577672,-0.0114114675671,-0.721378028393,-0.692445456982
1549647512659947774,,522920,,1549647512,659754415,"""world""",,,1.8443646431,-1.39574015141,0.56773763895,,0.00190975773148,-0.0124229891226,-0.721117854118,-0.692698478699
1549647512670176241,,522921,,1549647512,669967965,"""world""",,,1.84434878826,-1.39578378201,0.567596137524,,0.00163918547332,-0.01151122991,-0.721355676651,-0.692467212677
1549647512680371863,,522922,,1549647512,680184469,"""world""",,,1.8443377018,-1.39579367638,0.567596256733,,0.00165567419026,-0.0114198643714,-0.721379160881,-0.692444205284
1549647512690563779,,522923,,1549647512,690397879,"""world""",,,1.8443287611,-1.39577913284,0.567593932152,,0.00173006567638,-0.0113415988162,-0.721289455891,-0.692538738251
1549647512699913052,,522924,,1549647512,699745827,"""world""",,,1.84433591366,-1.39577579498,0.567596554756,,0.00163312710356,-0.0114021748304,-0.721339523792,-0.692485868931
1549647512710327893,,522925,,1549647512,710093352,"""world""",,,1.84434533119,-1.39577507973,0.56760674715,,0.00176022539381,-0.0115973427892,-0.721392393112,-0.69242721796
1549647512720637882,,522926,,1549647512,720397706,"""world""",,,1.84434735775,-1.39577436447,0.567607879639,,0.00183180475142,-0.0115861529484,-0.721383333206,-0.692436635494
1549647512720657664,,522927,,1549647512,720417020,"""world""",,,1.84435105324,-1.39576780796,0.567609608173,,0.00177481723949,-0.0116289360449,-0.721251308918,-0.692573666573
1549647512729795786,,522928,,1549647512,729570582,"""world""",,,1.84434604645,-1.39578318596,0.56761187315,,0.00176751078106,-0.0115551762283,-0.721336245537,-0.692486524582
1549647512740016159,,522929,,1549647512,739811411,"""world""",,,1.84434521198,-1.39574837685,0.567735254765,,0.00210408959538,-0.0124568548054,-0.721049070358,-0.692768931389
1549647512750245270,,522930,,1549647512,750020227,"""world""",,,1.84434664249,-1.39574575424,0.567747116089,,0.00220116227865,-0.0125344255939,-0.721007883549,-0.692810058594
1549647512760435152,,522931,,1549647512,760227926,"""world""",,,1.84435915947,-1.39576458931,0.567750930786,,0.00207988661714,-0.0124497180805,-0.721157550812,-0.692656099796
1549647512760460842,,522932,,1549647512,760246457,"""world""",,,1.84434711933,-1.39576244354,0.567734360695,,0.00207700510509,-0.012346630916,-0.721111774445,-0.692705631256
1549647512770639007,,522933,,1549647512,770470203,"""world""",,,1.84435498714,-1.39579904079,0.567606151104,,0.00175853411201,-0.0115145063028,-0.721394360065,-0.692426621914
1549647512779875943,,522934,,1549647512,779701623,"""world""",,,1.84436869621,-1.39578580856,0.567622542381,,0.00178521987982,-0.0116199720651,-0.721367537975,-0.692452728748
1549647512790079481,,522935,,1549647512,789916607,"""world""",,,1.84436833858,-1.395804286,0.56759428978,,0.00166080193594,-0.0112840728834,-0.721511721611,-0.692308366299
1549647512800316291,,522936,,1549647512,800142557,"""world""",,,1.84436035156,-1.39580011368,0.56760430336,,0.00172024627682,-0.0112784644589,-0.721536576748,-0.692282319069
1549647512810579794,,522937,,1549647512,810403559,"""world""",,,1.84437417984,-1.39575827122,0.567745447159,,0.00198882934637,-0.0125003289431,-0.72113853693,-0.692675232887
1549647512810601626,,522938,,1549647512,810423846,"""world""",,,1.84437513351,-1.39573800564,0.567738056183,,0.00204939581454,-0.0125210043043,-0.721015870571,-0.692802429199
1549647512819806552,,522939,,1549647512,819634845,"""world""",,,1.84437346458,-1.39574360847,0.567745506763,,0.00213523558341,-0.012545414269,-0.721135795116,-0.692676961422
1549647512830159993,,522940,,1549647512,829943960,"""world""",,,1.84437096119,-1.39574408531,0.567743360996,,0.0020749324467,-0.0124553414062,-0.72103625536,-0.692782282829
1549647512841512277,,522941,,1549647512,840275014,"""world""",,,1.84437549114,-1.39572203159,0.567741215229,,0.00215830747038,-0.0125347971916,-0.721006989479,-0.692811071873
1549647512850662606,,522942,,1549647512,850501994,"""world""",,,1.84438598156,-1.39571988583,0.567745566368,,0.00211856188253,-0.0125175025314,-0.721016407013,-0.692801773548
1549647512859928328,,522943,,1549647512,859710994,"""world""",,,1.84439146519,-1.3957195282,0.567741811275,,0.0020990727935,-0.0126683618873,-0.721041202545,-0.692773163319
1549647512859947903,,522944,,1549647512,859729073,"""world""",,,1.84437870979,-1.39572131634,0.567725539207,,0.00210359226912,-0.0124842273071,-0.720938384533,-0.692883551121
1549647512870104597,,522945,,1549647512,869945146,"""world""",,,1.84437274933,-1.3957734108,0.567611992359,,0.00178849289659,-0.0116621498019,-0.721355319023,-0.692464649677
1549647512880382338,,522946,,1549647512,880174051,"""world""",,,1.84436738491,-1.39580535889,0.567568719387,,0.00174129824154,-0.0112182516605,-0.721511125565,-0.692309856415
1549647512890579240,,522947,,1549647512,890424840,"""world""",,,1.84436428547,-1.3957952261,0.567579090595,,0.00163904554211,-0.0112045006827,-0.721538543701,-0.692281723022
1549647512899879716,,522948,,1549647512,899685001,"""world""",,,1.84436523914,-1.39579904079,0.567565798759,,0.00177236902528,-0.011217999272,-0.721527159214,-0.692293047905
1549647512910108933,,522949,,1549647512,909931148,"""world""",,,1.84436845779,-1.39578306675,0.567597568035,,0.00181500357576,-0.0115097453818,-0.721307635307,-0.692516863346
1549647512910130854,,522950,,1549647512,909949962,"""world""",,,1.84436774254,-1.39579677582,0.567590773106,,0.00174383784179,-0.0115367025137,-0.721290946007,-0.692533969879
1549647512920400227,,522951,,1549647512,920202322,"""world""",,,1.84434616566,-1.39580500126,0.56759428978,,0.00175762246363,-0.0115114152431,-0.721392929554,-0.69242811203
1549647512930665051,,522952,,1549647512,930482981,"""world""",,,1.84435486794,-1.39578938484,0.567579865456,,0.00173138012178,-0.0111243734136,-0.721466779709,-0.692357599735
1549647512939944485,,522953,,1549647512,939757339,"""world""",,,1.84435153008,-1.39578866959,0.567569255829,,0.00179430074058,-0.0111813703552,-0.721592783928,-0.69222509861
1549647512950168056,,522954,,1549647512,950014185,"""world""",,,1.84435081482,-1.39578616619,0.567579448223,,0.00177071487997,-0.0112058864906,-0.721447706223,-0.69237601757
1549647512960486773,,522955,,1549647512,960313259,"""world""",,,1.84435772896,-1.39579975605,0.567613661289,,0.00174055143725,-0.0115935066715,-0.721402168274,-0.69241720438
1549647512960506972,,522956,,1549647512,960336305,"""world""",,,1.84434664249,-1.39577758312,0.567575871944,,0.00180597777944,-0.01127403602,-0.721613049507,-0.69220250845
1549647512971058567,,522957,,1549647512,970603192,"""world""",,,1.8443363905,-1.39579617977,0.567596316338,,0.0017152010696,-0.0115099353716,-0.721456408501,-0.692362129688
1549647512980052655,,522958,,1549647512,979880182,"""world""",,,1.84433472157,-1.39579713345,0.567589759827,,0.00169166328851,-0.011482805945,-0.721408545971,-0.692412495613
1549647512990390196,,522959,,1549647512,990180704,"""world""",,,1.8443351984,-1.39577829838,0.567558407784,,0.00169206655119,-0.0110726682469,-0.721492528915,-0.69233161211
1549647513000626114,,522960,,1549647513,442262,"""world""",,,1.84432661533,-1.39579427242,0.567536830902,,0.00164494395722,-0.0110955294222,-0.721565067768,-0.692255854607
1549647513009857386,,522961,,1549647513,9684867,"""world""",,,1.84433758259,-1.39580929279,0.567575275898,,0.00162628164981,-0.0113963289186,-0.721373975277,-0.692450106144
1549647513009884876,,522962,,1549647513,9707597,"""world""",,,1.84433865547,-1.39580106735,0.567533791065,,0.00169076840393,-0.0110237104818,-0.721579194069,-0.692242145538
1549647513020109113,,522963,,1549647513,19956962,"""world""",,,1.8443467617,-1.39579558372,0.567535281181,,0.00166038807947,-0.0110535882413,-0.721666514874,-0.692150712013
1549647513030393323,,522964,,1549647513,30210343,"""world""",,,1.84432899952,-1.39580047131,0.567539691925,,0.00172829336952,-0.0109837260097,-0.721727311611,-0.692088246346
1549647513040663730,,522965,,1549647513,40479643,"""world""",,,1.8443338871,-1.39580404758,0.567547678947,,0.00161033158656,-0.0109963277355,-0.721678555012,-0.692139148712
1549647513049890263,,522966,,1549647513,49708720,"""world""",,,1.84435772896,-1.39579021931,0.567556977272,,0.00159088184591,-0.0112211247906,-0.721692502499,-0.692121088505
1549647513060105338,,522967,,1549647513,59934197,"""world""",,,1.8443492651,-1.39577460289,0.567591667175,,0.00170072738547,-0.0116204945371,-0.721493244171,-0.692321836948
1549647513060129565,,522968,,1549647513,59953886,"""world""",,,1.84433293343,-1.39577186108,0.567571401596,,0.00169548718259,-0.0112477149814,-0.721661865711,-0.692152261734
1549647513070378808,,522969,,1549647513,70170777,"""world""",,,1.84434986115,-1.39577674866,0.567595541477,,0.00177365809213,-0.0117086293176,-0.72151362896,-0.692299008369
1549647513080598931,,522970,,1549647513,80384917,"""world""",,,1.8443646431,-1.39576256275,0.567606389523,,0.00173929799348,-0.0117638381198,-0.721489429474,-0.692323327065
1549647513089780007,,522971,,1549647513,89597009,"""world""",,,1.84436428547,-1.39576566219,0.56757324934,,0.00157316948753,-0.0113892778754,-0.721593141556,-0.692221939564
1549647513099980076,,522972,,1549647513,99832114,"""world""",,,1.84436523914,-1.39576327801,0.56760764122,,0.00165802182164,-0.0117119234055,-0.721410810947,-0.692406356335
1549647513110329769,,522973,,1549647513,110108403,"""world""",,,1.84436237812,-1.39576089382,0.567616522312,,0.00161049875896,-0.0116765173152,-0.721367776394,-0.692451894283
1549647513120535104,,522974,,1549647513,120367315,"""world""",,,1.84436547756,-1.39576613903,0.56760597229,,0.00170934060588,-0.0116417026147,-0.721366047859,-0.692454099655
1549647513120553222,,522975,,1549647513,120392599,"""world""",,,1.8443608284,-1.39574873447,0.567602574825,,0.00179839832708,-0.0116556519642,-0.721336305141,-0.692484557629
1549647513129761958,,522976,,1549647513,129594882,"""world""",,,1.84435296059,-1.3957811594,0.567583203316,,0.00159119151067,-0.0112529657781,-0.721662998199,-0.69215130806
1549647513140045499,,522977,,1549647513,139859052,"""world""",,,1.84434103966,-1.39579677582,0.56758660078,,0.00156973814592,-0.0115186534822,-0.721441328526,-0.692378103733
1549647513150360201,,522978,,1549647513,150202507,"""world""",,,1.84435856342,-1.3957824707,0.567587196827,,0.00167766551021,-0.0115695353597,-0.721423923969,-0.692394971848
1549647513160636938,,522979,,1549647513,160445417,"""world""",,,1.84435248375,-1.39576983452,0.567555487156,,0.00166646740399,-0.0112074706703,-0.721504926682,-0.69231659174
1549647513160659833,,522980,,1549647513,160466024,"""world""",,,1.84435141087,-1.3957875967,0.56757748127,,0.00169405469205,-0.0114535912871,-0.721399307251,-0.692422568798
1549647513170026531,,522981,,1549647513,169876118,"""world""",,,1.84435892105,-1.39577698708,0.567577362061,,0.00173797993921,-0.0115744480863,-0.721428513527,-0.692390024662
1549647513180255927,,522982,,1549647513,180093231,"""world""",,,1.84435248375,-1.39578020573,0.567571341991,,0.00166055595037,-0.0114969881251,-0.721404135227,-0.692416965961
1549647513190724817,,522983,,1549647513,190408060,"""world""",,,1.84435379505,-1.3957862854,0.567572891712,,0.00172972946893,-0.0115882195532,-0.721393942833,-0.692425906658
1549647513200158984,,522984,,1549647513,199746596,"""world""",,,1.84434616566,-1.39578330517,0.567560255527,,0.00169674493372,-0.0115270391107,-0.72141623497,-0.692403793335
1549647513210651604,,522985,,1549647513,210156278,"""world""",,,1.84434735775,-1.39580392838,0.567580997944,,0.00158225547057,-0.0115749910474,-0.72151684761,-0.692298293114
1549647513210695483,,522986,,1549647513,210207046,"""world""",,,1.84434115887,-1.39581167698,0.567562937737,,0.00167870789301,-0.0116005018353,-0.721472978592,-0.69234341383
1549647513221073478,,522987,,1549647513,220620822,"""world""",,,1.84435415268,-1.39580011368,0.567578196526,,0.00168162211776,-0.0117750456557,-0.721527934074,-0.692283272743
1549647513230377069,,522988,,1549647513,229992483,"""world""",,,1.84435474873,-1.39580023289,0.567568838596,,0.00178455293644,-0.0116809811443,-0.721456885338,-0.69235855341
1549647513240713280,,522989,,1549647513,240370836,"""world""",,,1.84434890747,-1.39579248428,0.567569851875,,0.0016731119249,-0.0116061083972,-0.721419334412,-0.692399263382
1549647513251143496,,522990,,1549647513,249780759,"""world""",,,1.84436130524,-1.39579343796,0.567579448223,,0.00167388515547,-0.0116555755958,-0.721454024315,-0.692362308502
1549647513260460651,,522991,,1549647513,260174278,"""world""",,,1.84434473515,-1.39580023289,0.567554712296,,0.00162126065698,-0.0112955011427,-0.721613585949,-0.692202031612
1549647513260492176,,522992,,1549647513,260200997,"""world""",,,1.84435164928,-1.39577829838,0.56757992506,,0.00170307361986,-0.0116322841495,-0.721448361874,-0.692368507385
1549647513270756816,,522993,,1549647513,270506408,"""world""",,,1.84436666965,-1.39578664303,0.567592918873,,0.00156604638323,-0.0117590799928,-0.72153711319,-0.692274212837
1549647513280092059,,522994,,1549647513,279820521,"""world""",,,1.84435331821,-1.39580917358,0.567578732967,,0.00150744558778,-0.0115919737145,-0.721587181091,-0.692224979401
1549647513290680627,,522995,,1549647513,290072021,"""world""",,,1.84435176849,-1.39579164982,0.567571341991,,0.00160904298536,-0.0116020636633,-0.721469700336,-0.692346990108
1549647513300655872,,522996,,1549647513,300398892,"""world""",,,1.84434831142,-1.39578914642,0.567540287971,,0.00175810663495,-0.0113271484151,-0.721651136875,-0.692162036896
1549647513310059795,,522997,,1549647513,309829432,"""world""",,,1.84435319901,-1.39576613903,0.567561924458,,0.00181588949636,-0.0116570899263,-0.72144806385,-0.692368149757
1549647513310085690,,522998,,1549647513,309854960,"""world""",,,1.84435856342,-1.3957464695,0.567551851273,,0.00175615528133,-0.011264658533,-0.721516609192,-0.692303240299
1549647513320496915,,522999,,1549647513,320220268,"""world""",,,1.84434604645,-1.39575433731,0.567569434643,,0.00178882561158,-0.0115371262655,-0.721389830112,-0.692430853844
1549647513331099226,,523000,,1549647513,330597367,"""world""",,,1.84436547756,-1.39575183392,0.567537128925,,0.00167169456836,-0.0112176155671,-0.721568286419,-0.692250430584
1549647513340354357,,523001,,1549647513,340081262,"""world""",,,1.84436058998,-1.39576745033,0.567542672157,,0.00163004116621,-0.0111785484478,-0.721586763859,-0.692231893539
1549647513350707521,,523002,,1549647513,350457428,"""world""",,,1.84435379505,-1.39578175545,0.567572772503,,0.00174436776433,-0.0115240914747,-0.721449315548,-0.692369222641
1549647513360027310,,523003,,1549647513,359748118,"""world""",,,1.84435784817,-1.39575409889,0.567542850971,,0.00186227425002,-0.0111826872453,-0.721619367599,-0.692197322845
1549647513360050865,,523004,,1549647513,359782379,"""world""",,,1.84435665607,-1.39574968815,0.567561388016,,0.00169741210993,-0.0111993839964,-0.721512675285,-0.692308604717
1549647513370381846,,523005,,1549647513,370114105,"""world""",,,1.84438669682,-1.39575695992,0.567558288574,,0.00164521741681,-0.0112816086039,-0.72158908844,-0.692227780819
1549647513380770548,,523006,,1549647513,380477467,"""world""",,,1.84438431263,-1.39574718475,0.567590534687,,0.00168835662771,-0.011652154848,-0.721409916878,-0.692408144474
1549647513390119184,,523007,,1549647513,389746039,"""world""",,,1.84437537193,-1.39574801922,0.567569315434,,0.001679264009,-0.0112543385476,-0.721512019634,-0.692308485508
1549647513400271368,,523008,,1549647513,400015388,"""world""",,,1.84438073635,-1.39577376842,0.567570209503,,0.00160810304806,-0.0112137952819,-0.721647977829,-0.692167520523
1549647513410589148,,523009,,1549647513,410322254,"""world""",,,1.84438490868,-1.39576399326,0.567571341991,,0.00178910628892,-0.0113112246618,-0.721621155739,-0.692193388939
1549647513410622525,,523010,,1549647513,410349507,"""world""",,,1.84438192844,-1.39576971531,0.567596673965,,0.00176436780021,-0.0116721754894,-0.721376895905,-0.692442059517
1549647513419798896,,523011,,1549647513,419532637,"""world""",,,1.84438621998,-1.39578068256,0.567587554455,,0.00174057111144,-0.0117359887809,-0.721407055855,-0.69240963459
1549647513430251015,,523012,,1549647513,429984763,"""world""",,,1.84437870979,-1.39577162266,0.567583143711,,0.00183121534064,-0.0117737809196,-0.721348404884,-0.692469954491
1549647513440504681,,523013,,1549647513,440290893,"""world""",,,1.84436917305,-1.39577448368,0.567575097084,,0.00183272035792,-0.0116210058331,-0.721274375916,-0.692549586296
1549647513449863047,,523014,,1549647513,449593963,"""world""",,,1.84436714649,-1.39575123787,0.567688286304,,0.00214978377335,-0.0122617362067,-0.721084177494,-0.692735671997
1549647513460224740,,523015,,1549647513,459949620,"""world""",,,1.84435498714,-1.39578914642,0.567576825619,,0.00187065859791,-0.0115260742605,-0.721332907677,-0.692490100861
1549647513460257644,,523016,,1549647513,459977026,"""world""",,,1.84435975552,-1.39580202103,0.567581534386,,0.00182111328468,-0.0115391826257,-0.721354663372,-0.692467391491
1549647513470442645,,523017,,1549647513,470237742,"""world""",,,1.84436833858,-1.3957887888,0.567560732365,,0.00178765458986,-0.0113227684051,-0.721524655819,-0.692293941975
1549647513480855702,,523018,,1549647513,480550706,"""world""",,,1.84437716007,-1.39579081535,0.56759083271,,0.00182926328853,-0.011736095883,-0.721297800541,-0.692523241043
1549647513490137734,,523019,,1549647513,489896211,"""world""",,,1.84437346458,-1.39579987526,0.567563533783,,0.0017120615812,-0.0112932119519,-0.721464335918,-0.692357420921
1549647513500507925,,523020,,1549647513,500192785,"""world""",,,1.84437549114,-1.3958029747,0.567577064037,,0.00160845497157,-0.0111536933109,-0.721513330936,-0.69230890274
1549647513510847588,,523021,,1549647513,510544943,"""world""",,,1.8443595171,-1.39580011368,0.567571759224,,0.00166043324862,-0.0111486436799,-0.721537292004,-0.69228386879
1549647513520246164,,523022,,1549647513,519975731,"""world""",,,1.84437251091,-1.39581084251,0.567577958107,,0.00164108339231,-0.0112359579653,-0.721520006657,-0.69230055809
1549647513520271607,,523023,,1549647513,520000200,"""world""",,,1.84438443184,-1.39581000805,0.567574679852,,0.00153880112339,-0.0111848553643,-0.721488296986,-0.692334592342
1549647513530463183,,523024,,1549647513,530258512,"""world""",,,1.84437096119,-1.39581692219,0.567617237568,,0.00162287929561,-0.0115659134462,-0.721415996552,-0.692403495312
1549647513540743757,,523025,,1549647513,540537132,"""world""",,,1.84436619282,-1.39579415321,0.567596316338,,0.0016288094921,-0.0115024028346,-0.721309483051,-0.692515432835
1549647513550091813,,523026,,1549647513,549851530,"""world""",,,1.84436225891,-1.39575791359,0.567608654499,,0.0017581662396,-0.0117070982233,-0.72134745121,-0.692472279072
1549647513560494717,,523027,,1549647513,560191352,"""world""",,,1.84436166286,-1.39576363564,0.56759428978,,0.00177206518129,-0.0117747327313,-0.721266388893,-0.692555427551
1549647513560522458,,523028,,1549647513,560215987,"""world""",,,1.84436738491,-1.39577150345,0.567601561546,,0.00183698011097,-0.0118393395096,-0.721235096455,-0.692586779594
1549647513570866290,,523029,,1549647513,570559683,"""world""",,,1.84436953068,-1.39578330517,0.567598938942,,0.0017928853631,-0.0117555139586,-0.721299529076,-0.69252127409
1549647513580321913,,523030,,1549647513,580075650,"""world""",,,1.84436273575,-1.39578676224,0.567587018013,,0.00180590292439,-0.0116840619594,-0.721321463585,-0.692499518394
1549647513590620039,,523031,,1549647513,590393337,"""world""",,,1.84436011314,-1.39580118656,0.567589938641,,0.00172747997567,-0.0117128435522,-0.721332252026,-0.692488014698
1549647513599885973,,523032,,1549647513,599632478,"""world""",,,1.84437119961,-1.39579582214,0.567598223686,,0.00166366738267,-0.0116652427241,-0.721224486828,-0.692601263523
1549647513610111264,,523033,,1549647513,609904670,"""world""",,,1.84437859058,-1.39576399326,0.567607402802,,0.00163570325822,-0.0118486406282,-0.721276044846,-0.692544460297
1549647513610136612,,523034,,1549647513,609930115,"""world""",,,1.84436786175,-1.39576756954,0.567610740662,,0.00159088266082,-0.0117320613936,-0.721178531647,-0.692648172379
1549647513620596935,,523035,,1549647513,620343990,"""world""",,,1.8443621397,-1.39577114582,0.567597448826,,0.00162602134515,-0.0116663351655,-0.721198856831,-0.692627966404
1549647513629837268,,523036,,1549647513,629547325,"""world""",,,1.84437191486,-1.39580154419,0.567582428455,,0.00162097159773,-0.0115935355425,-0.721295058727,-0.692529022694
1549647513640147847,,523037,,1549647513,639880755,"""world""",,,1.84436070919,-1.39580738544,0.567590117455,,0.00159959017765,-0.0115480218083,-0.721289157867,-0.692535996437
1549647513650441860,,523038,,1549647513,650152771,"""world""",,,1.84437298775,-1.39578533173,0.567602038383,,0.00166143523529,-0.0116279227659,-0.721226513386,-0.692599833012
1549647513660796513,,523039,,1549647513,660507153,"""world""",,,1.84435474873,-1.3957887888,0.567602396011,,0.00171634601429,-0.0116371363401,-0.72129291296,-0.692530333996
1549647513660831013,,523040,,1549647513,660542368,"""world""",,,1.84435391426,-1.39579331875,0.567600727081,,0.00168470072094,-0.0116197718307,-0.721323788166,-0.692498505116
1549647513670140231,,523041,,1549647513,669894380,"""world""",,,1.84434425831,-1.39579045773,0.567589879036,,0.00167938589584,-0.011473281309,-0.721191465855,-0.692638754845
1549647513680754244,,523042,,1549647513,680334689,"""world""",,,1.84434020519,-1.39580321312,0.567596077919,,0.00158639997244,-0.0115264756605,-0.721247076988,-0.692580163479
1549647513690206511,,523043,,1549647513,689805772,"""world""",,,1.84434890747,-1.39580285549,0.567590534687,,0.00156551261898,-0.0115446783602,-0.721258282661,-0.69256824255
1549647513700583280,,523044,,1549647513,700191124,"""world""",,,1.84433746338,-1.39579844475,0.567608237267,,0.00157162139658,-0.0115251569077,-0.7213062644,-0.692518591881
1549647513710837880,,523045,,1549647513,710587536,"""world""",,,1.84433472157,-1.39580190182,0.567578554153,,0.00159850565251,-0.0115832230076,-0.721309840679,-0.692513823509
1549647513710872810,,523046,,1549647513,710613190,"""world""",,,1.84435510635,-1.39579832554,0.567582249641,,0.00157813797705,-0.0116555774584,-0.721316754818,-0.692505538464
1549647513720194443,,523047,,1549647513,719968231,"""world""",,,1.84434306622,-1.39581918716,0.567579269409,,0.0016464414075,-0.0115458564833,-0.721331119537,-0.692492246628
1549647513730610370,,523048,,1549647513,730327544,"""world""",,,1.84432899952,-1.39580726624,0.567562997341,,0.00168802251574,-0.0115094529465,-0.721300303936,-0.692524790764
1549647513739819844,,523049,,1549647513,739536978,"""world""",,,1.84434342384,-1.39579844475,0.567580640316,,0.00154139613733,-0.0115671679378,-0.721293449402,-0.692531228065
1549647513750155128,,523050,,1549647513,749874153,"""world""",,,1.84433746338,-1.39581596851,0.567574799061,,0.00164928054437,-0.0117088314146,-0.721370279789,-0.692448735237
1549647513760501917,,523051,,1549647513,760252802,"""world""",,,1.8443287611,-1.39582920074,0.567560851574,,0.00164014240727,-0.0115023963153,-0.7213742733,-0.692447960377
1549647513760531932,,523052,,1549647513,760282068,"""world""",,,1.84432649612,-1.39583587646,0.567562520504,,0.00159791717306,-0.0116388862953,-0.721372485161,-0.692447662354
1549647513770832705,,523053,,1549647513,770592679,"""world""",,,1.84432530403,-1.39582955837,0.567581415176,,0.00160741759464,-0.0116154486313,-0.721373081207,-0.69244748354
1549647513780068725,,523054,,1549647513,779848172,"""world""",,,1.8443338871,-1.39582705498,0.567581117153,,0.00171880843118,-0.0116804102436,-0.721408307552,-0.692409396172
1549647513790568379,,523055,,1549647513,790323543,"""world""",,,1.84431731701,-1.39581930637,0.567592024803,,0.00160688662436,-0.0116836111993,-0.721400737762,-0.692417502403
1549647513800833911,,523056,,1549647513,800584329,"""world""",,,1.84430491924,-1.39583265781,0.56757837534,,0.0016809636727,-0.0115377204493,-0.721457183361,-0.692360877991
1549647513810108379,,523057,,1549647513,809909375,"""world""",,,1.84432196617,-1.39582240582,0.56755232811,,0.00152593769599,-0.0111818443984,-0.721586823463,-0.692231953144
1549647513810132697,,523058,,1549647513,809935260,"""world""",,,1.84432852268,-1.3958158493,0.567585647106,,0.00155598204583,-0.0116216121241,-0.721494853497,-0.692320525646
1549647513820453953,,523059,,1549647513,820217339,"""world""",,,1.84433615208,-1.39580821991,0.567567706108,,0.00146583491005,-0.0112925991416,-0.721624433994,-0.692191183567
1549647513830793667,,523060,,1549647513,830540874,"""world""",,,1.84433329105,-1.39579153061,0.56754899025,,0.00163395598065,-0.0112915178761,-0.721567332745,-0.69225025177
1549647513840131938,,523061,,1549647513,839868977,"""world""",,,1.8443223238,-1.39580559731,0.567545235157,,0.00162975874264,-0.0112545350567,-0.721639931202,-0.692175209522
1549647513850467457,,523062,,1549647513,850223662,"""world""",,,1.84432661533,-1.39580619335,0.567583560944,,0.00171919411514,-0.0116495024413,-0.721518039703,-0.6922955513
1549647513860771179,,523063,,1549647513,860492262,"""world""",,,1.84433567524,-1.39579284191,0.567601144314,,0.00165954348631,-0.0117871621624,-0.721411108971,-0.692404747009
1549647513860803127,,523064,,1549647513,860531729,"""world""",,,1.84432578087,-1.39579892159,0.567588627338,,0.00174979330041,-0.0116794807836,-0.721447050571,-0.692368984222
1549647513870039804,,523065,,1549647513,869841492,"""world""",,,1.84434401989,-1.39582288265,0.567559242249,,0.00163970200811,-0.0114200832322,-0.721768021584,-0.692038953304
1549647513880397365,,523066,,1549647513,880179808,"""world""",,,1.84434843063,-1.39577078819,0.567721605301,,0.00208703265525,-0.0126567753032,-0.72113096714,-0.692680001259
1549647513890723116,,523067,,1549647513,890465664,"""world""",,,1.84435236454,-1.39580249786,0.567615270615,,0.00165759620722,-0.0118630593643,-0.721456825733,-0.692355871201
