rosbagTimestamp,header,seq,stamp,secs,nsecs,frame_id,pose,position,x,y,z,orientation,x,y,z,w
1549646714840299093,,427626,,1549646714,839930750,"""world""",,,1.76367270947,-1.35968887806,0.569413781166,,0.000798849621788,-0.0143392225727,-0.680953025818,-0.732186317444
1549646714850490596,,427627,,1549646714,850244736,"""world""",,,1.76369011402,-1.35969460011,0.569406926632,,0.000755901623052,-0.0142864938825,-0.680901348591,-0.732235372066
1549646714859672024,,427628,,1549646714,859513003,"""world""",,,1.76370513439,-1.3596701622,0.569405853748,,0.000741217634641,-0.0143509348854,-0.68074798584,-0.732376754284
1549646714859691979,,427629,,1549646714,859532253,"""world""",,,1.76367044449,-1.35968005657,0.569400191307,,0.000861914770212,-0.0142986597493,-0.681007444859,-0.732136368752
1549646714869946692,,427630,,1549646714,869840370,"""world""",,,1.76368093491,-1.3596842289,0.569406211376,,0.000784881704021,-0.0143283884972,-0.680953919888,-0.732185661793
1549646714880173368,,427631,,1549646714,880062501,"""world""",,,1.76369965076,-1.35966694355,0.569395899773,,0.000911591458134,-0.0142864650115,-0.680925965309,-0.732212364674
1549646714890481799,,427632,,1549646714,890332552,"""world""",,,1.76370406151,-1.35966217518,0.569387972355,,0.000906503410079,-0.014307456091,-0.681005656719,-0.732137858868
1549646714899736096,,427633,,1549646714,899589539,"""world""",,,1.7636961937,-1.35967111588,0.569384813309,,0.000993573921733,-0.0142896790057,-0.680949807167,-0.732190012932
1549646714909995452,,427634,,1549646714,909853627,"""world""",,,1.76370573044,-1.3596559763,0.569398581982,,0.000951825059019,-0.0143436854705,-0.680912613869,-0.732223570347
1549646714920606776,,427635,,1549646714,920246276,"""world""",,,1.76368689537,-1.35965692997,0.569390058517,,0.00108792202082,-0.0144288586453,-0.681051552296,-0.732092559338
1549646714920862252,,427636,,1549646714,920320140,"""world""",,,1.76371610165,-1.35963773727,0.569395065308,,0.000935046176892,-0.0144361555576,-0.680824756622,-0.732303500175
1549646714930083329,,427637,,1549646714,929793848,"""world""",,,1.76369929314,-1.35964691639,0.569386541843,,0.000993627822027,-0.0143944518641,-0.680752456188,-0.732371509075
1549646714943043911,,427638,,1549646714,940274453,"""world""",,,1.76368176937,-1.35966265202,0.569386482239,,0.000972636567894,-0.0143074719235,-0.68087053299,-0.73226338625
1549646714949962129,,427639,,1549646714,949598685,"""world""",,,1.7636898756,-1.35966432095,0.569379687309,,0.00100518437102,-0.0143908010796,-0.680810749531,-0.732317328453
1549646714960223136,,427640,,1549646714,959969429,"""world""",,,1.76367795467,-1.35967338085,0.569375216961,,0.00106596120168,-0.0143213020638,-0.680810749531,-0.732318639755
1549646714960258650,,427641,,1549646714,960038905,"""world""",,,1.76367151737,-1.3596701622,0.569357991219,,0.00104988925159,-0.0142986644059,-0.680852711201,-0.73228007555
1549646714970561148,,427642,,1549646714,970396297,"""world""",,,1.76366949081,-1.35967886448,0.569377660751,,0.000960050558206,-0.0143288522959,-0.68107175827,-0.732075870037
1549646714979888380,,427643,,1549646714,979738755,"""world""",,,1.76365840435,-1.35969805717,0.569391012192,,0.000756334338803,-0.0143048865721,-0.681132316589,-0.732020258904
1549646714990307537,,427644,,1549646714,990141756,"""world""",,,1.76366353035,-1.35968482494,0.569397926331,,0.000798404798843,-0.0143615119159,-0.681013047695,-0.732129991055
1549646715000617606,,427645,,1549646715,476584,"""world""",,,1.76367199421,-1.35966455936,0.5694013834,,0.000792284321506,-0.0145262051374,-0.680828154087,-0.732298731804
1549646715009979978,,427646,,1549646715,9822655,"""world""",,,1.76367080212,-1.35965895653,0.569385647774,,0.00083105720114,-0.0144416317344,-0.68084448576,-0.73228520155
1549646715009994468,,427647,,1549646715,9845830,"""world""",,,1.76366686821,-1.35963189602,0.569359838963,,0.000988600077108,-0.0144065013155,-0.680695772171,-0.732423901558
1549646715020265699,,427648,,1549646715,20110741,"""world""",,,1.76366508007,-1.35965752602,0.569367945194,,0.00100482278503,-0.0144204916432,-0.680912435055,-0.732222259045
1549646715030651685,,427649,,1549646715,30470402,"""world""",,,1.76366448402,-1.35968089104,0.569380164146,,0.000942744314671,-0.0144759872928,-0.680907189846,-0.732226014137
1549646715039930839,,427650,,1549646715,39758902,"""world""",,,1.76366734505,-1.35969865322,0.569381356239,,0.000879609375261,-0.0144003499299,-0.681022703648,-0.732120156288
1549646715050507984,,427651,,1549646715,50123531,"""world""",,,1.76367175579,-1.3597176075,0.569377541542,,0.000861248932779,-0.0142895830795,-0.681059598923,-0.732088029385
1549646715061127411,,427652,,1549646715,60536471,"""world""",,,1.76369524002,-1.35969352722,0.569374084473,,0.000950846646447,-0.0143700027838,-0.680872440338,-0.732260406017
1549646715061163302,,427653,,1549646715,60686132,"""world""",,,1.7636756897,-1.35970568657,0.569379329681,,0.000865660957061,-0.0142755704001,-0.681059002876,-0.732088923454
1549646715071102696,,427654,,1549646715,70617738,"""world""",,,1.76368141174,-1.35969591141,0.56938201189,,0.000833077996504,-0.0142400739715,-0.681015968323,-0.732129693031
1549646715080159362,,427655,,1549646715,79905571,"""world""",,,1.76366388798,-1.35971200466,0.569388151169,,0.000780061644036,-0.0142939435318,-0.681036412716,-0.732109725475
1549646715090617954,,427656,,1549646715,90235141,"""world""",,,1.76368463039,-1.35968720913,0.569385170937,,0.000852081284393,-0.0142533723265,-0.68091160059,-0.73222643137
1549646715101121223,,427657,,1549646715,100678350,"""world""",,,1.76365721226,-1.35970389843,0.569378852844,,0.00103950488847,-0.014212500304,-0.68113976717,-0.732014775276
1549646715101277975,,427658,,1549646715,100728636,"""world""",,,1.76368057728,-1.35969829559,0.569380819798,,0.000873693963513,-0.0142714669928,-0.681095182896,-0.732055306435
1549646715110317323,,427659,,1549646715,110064257,"""world""",,,1.76369512081,-1.35968959332,0.569388389587,,0.000996374175884,-0.0144053511322,-0.680937230587,-0.732199430466
1549646715120587788,,427660,,1549646715,120327015,"""world""",,,1.76367211342,-1.35970044136,0.569408833981,,0.00109437573701,-0.0145143037662,-0.681023180485,-0.732117176056
1549646715129803625,,427661,,1549646715,129559201,"""world""",,,1.76367974281,-1.35969316959,0.569402933121,,0.00112168758642,-0.0145449079573,-0.68104571104,-0.732095599174
1549646715140096726,,427662,,1549646715,139859567,"""world""",,,1.76366829872,-1.35970747471,0.569397330284,,0.00122758583166,-0.0144853750244,-0.681153655052,-0.731996178627
1549646715150491768,,427663,,1549646715,150275000,"""world""",,,1.76367521286,-1.35970258713,0.569409608841,,0.000976533163339,-0.0143797034398,-0.681121051311,-0.732029020786
1549646715159787876,,427664,,1549646715,159548375,"""world""",,,1.763687253,-1.35968840122,0.569409966469,,0.000997079303488,-0.0144973117858,-0.680893063545,-0.732238709927
1549646715170339116,,427665,,1549646715,169933563,"""world""",,,1.76369655132,-1.35967648029,0.569386780262,,0.000949567533098,-0.0143961207941,-0.680769264698,-0.732355892658
1549646715170447857,,427666,,1549646715,169975720,"""world""",,,1.7636911869,-1.35970056057,0.569372117519,,0.000965925049968,-0.0142674408853,-0.68078738451,-0.732341527939
1549646715180748417,,427667,,1549646715,180391741,"""world""",,,1.76370251179,-1.35970234871,0.56936019659,,0.00100807112176,-0.0142652681097,-0.680717468262,-0.732406497002
1549646715190105578,,427668,,1549646715,189731427,"""world""",,,1.76370096207,-1.35971295834,0.569362401962,,0.00104259303771,-0.0142387039959,-0.68079406023,-0.732335805893
1549646715200551481,,427669,,1549646715,200128130,"""world""",,,1.76368546486,-1.35970449448,0.569358289242,,0.00101416697726,-0.0141921220347,-0.68089646101,-0.73224157095
1549646715210933551,,427670,,1549646715,210526467,"""world""",,,1.76367294788,-1.35971212387,0.569365084171,,0.00109899952076,-0.0142248030752,-0.680960536003,-0.73218113184
1549646715211014897,,427671,,1549646715,210573230,"""world""",,,1.76364791393,-1.35969388485,0.569350421429,,0.00104940647725,-0.0142164183781,-0.681042909622,-0.73210477829
1549646715220460763,,427672,,1549646715,220070785,"""world""",,,1.76365435123,-1.35968244076,0.569380283356,,0.000969893008005,-0.0143330292776,-0.680944442749,-0.732194244862
1549646715231139212,,427673,,1549646715,230751568,"""world""",,,1.76364827156,-1.35969686508,0.569398522377,,0.000947924912907,-0.0142784127966,-0.681051909924,-0.732095360756
1549646715240722395,,427674,,1549646715,240308515,"""world""",,,1.76367855072,-1.3596893549,0.569394648075,,0.00092721148394,-0.0143593214452,-0.680879414082,-0.732254207134
1549646715250133841,,427675,,1549646715,249728908,"""world""",,,1.76365911961,-1.3597240448,0.569396257401,,0.00102813052945,-0.0143664749339,-0.680985808372,-0.732155025005
1549646715260489257,,427676,,1549646715,260092049,"""world""",,,1.76366019249,-1.35972213745,0.569394111633,,0.000966400781181,-0.0142691517249,-0.680952787399,-0.732187688351
1549646715260607659,,427677,,1549646715,260133139,"""world""",,,1.76365947723,-1.35974240303,0.569396257401,,0.00093582062982,-0.0142992902547,-0.681095480919,-0.73205435276
1549646715270656709,,427678,,1549646715,270398568,"""world""",,,1.7636538744,-1.35975325108,0.569404959679,,0.000971646630205,-0.0142307830974,-0.681094527245,-0.732056558132
1549646715279843491,,427679,,1549646715,279589540,"""world""",,,1.76365208626,-1.35970664024,0.569384694099,,0.00100249657407,-0.0142115289345,-0.680831372738,-0.732301652431
1549646715290122295,,427680,,1549646715,289843961,"""world""",,,1.7636398077,-1.35971403122,0.56940895319,,0.000963839527685,-0.0143400598317,-0.681017935276,-0.73212569952
1549646715300437204,,427681,,1549646715,300196692,"""world""",,,1.76364886761,-1.35971391201,0.569395542145,,0.00104251108132,-0.0141977667809,-0.680824458599,-0.732308328152
1549646715310158224,,427682,,1549646715,309892611,"""world""",,,1.76362431049,-1.35973715782,0.569417238235,,0.000828867254313,-0.0142028722912,-0.680958509445,-0.732183814049
1549646715310193384,,427683,,1549646715,309924672,"""world""",,,1.76361012459,-1.35974526405,0.569386601448,,0.00096557289362,-0.0141456006095,-0.680953085423,-0.732189834118
1549646715320472008,,427684,,1549646715,320246007,"""world""",,,1.7636141777,-1.35974001884,0.569402813911,,0.000881997053511,-0.0142549099401,-0.681006669998,-0.732137978077
1549646715330864036,,427685,,1549646715,330648026,"""world""",,,1.76361620426,-1.35974538326,0.569414317608,,0.00082942575682,-0.0142374727875,-0.681088149548,-0.732062578201
1549646715340288379,,427686,,1549646715,340009389,"""world""",,,1.76362967491,-1.35973119736,0.569433748722,,0.000955523864832,-0.0143091417849,-0.68096023798,-0.732179999352
1549646715350561528,,427687,,1549646715,350300909,"""world""",,,1.76362860203,-1.35973656178,0.569431900978,,0.000940423284192,-0.014404960908,-0.68104082346,-0.732103168964
1549646715360974711,,427688,,1549646715,360661367,"""world""",,,1.76361036301,-1.3597227335,0.569427728653,,0.00108273304068,-0.0143617065623,-0.680882453918,-0.732251167297
1549646715361023034,,427689,,1549646715,360688952,"""world""",,,1.763635993,-1.35971462727,0.569422900677,,0.000908877234906,-0.014427752234,-0.680786907673,-0.732338905334
1549646715370224678,,427690,,1549646715,369969043,"""world""",,,1.7636333704,-1.35963153839,0.569424808025,,0.00011125546007,-0.0145215308294,-0.680136084557,-0.73294210434
1549646715380513762,,427691,,1549646715,380269741,"""world""",,,1.76365768909,-1.35963046551,0.569427788258,,4.76123677799e-05,-0.0145420664921,-0.680092990398,-0.732981681824
1549646715390807485,,427692,,1549646715,390598800,"""world""",,,1.76362395287,-1.35973227024,0.569405734539,,0.000968285719864,-0.0142955519259,-0.681114077568,-0.732037127018
1549646715400144531,,427693,,1549646715,399881979,"""world""",,,1.7636423111,-1.35970139503,0.569414377213,,0.000923049869016,-0.0143706044182,-0.680908620358,-0.732226848602
1549646715410616031,,427694,,1549646715,410298579,"""world""",,,1.763641119,-1.35969913006,0.569417059422,,0.000934455136303,-0.0144213521853,-0.680971622467,-0.732167303562
1549646715420904810,,427695,,1549646715,420628086,"""world""",,,1.76364934444,-1.35969531536,0.569399118423,,0.00089587981347,-0.0142793031409,-0.680842459202,-0.732290148735
1549646715420933174,,427696,,1549646715,420661588,"""world""",,,1.76365280151,-1.35967564583,0.56939381361,,0.000964007340372,-0.014419592917,-0.680833160877,-0.732295930386
1549646715430128669,,427697,,1549646715,429911943,"""world""",,,1.76365816593,-1.35968458652,0.569397211075,,0.000901519670151,-0.0144640952349,-0.680939257145,-0.732196569443
1549646715440519184,,427698,,1549646715,440219917,"""world""",,,1.76365947723,-1.35970723629,0.569403886795,,0.000841735687573,-0.0145131060854,-0.68095946312,-0.73217689991
1549646715451078721,,427699,,1549646715,450660538,"""world""",,,1.76364028454,-1.35972094536,0.56939047575,,0.000892661861144,-0.0143667459488,-0.681091487408,-0.732056856155
1549646715451121097,,427700,,1549646715,450708083,"""world""",,,1.76365458965,-1.35971176624,0.569400906563,,0.000852403463796,-0.0144439274445,-0.681057333946,-0.732087135315
1549646715460616226,,427701,,1549646715,460202155,"""world""",,,1.76363241673,-1.3597137928,0.569391310215,,0.00082419620594,-0.0145102934912,-0.68103903532,-0.732102930546
1549646715470179948,,427702,,1549646715,469820226,"""world""",,,1.76364028454,-1.35970020294,0.569387674332,,0.000848252908327,-0.0144684044644,-0.681132376194,-0.732016861439
1549646715480392611,,427703,,1549646715,480136533,"""world""",,,1.76365661621,-1.35969746113,0.569361329079,,0.000923878978938,-0.0144733376801,-0.68098950386,-0.732149660587
1549646715491044311,,427704,,1549646715,490651265,"""world""",,,1.76365363598,-1.35971581936,0.569373607635,,0.00069742964115,-0.0143827898428,-0.681073844433,-0.732073187828
1549646715500472910,,427705,,1549646715,500054469,"""world""",,,1.76366555691,-1.35968661308,0.56936776638,,0.000749828468543,-0.0143975587562,-0.680988729,-0.732152044773
1549646715511126970,,427706,,1549646715,510610963,"""world""",,,1.76366531849,-1.35968506336,0.569361627102,,0.000821238034405,-0.0143210357055,-0.681022167206,-0.732122302055
1549646715511175213,,427707,,1549646715,510670946,"""world""",,,1.76367413998,-1.3596752882,0.569376647472,,0.000698610325344,-0.0143569400534,-0.680974006653,-0.732166528702
1549646715520508357,,427708,,1549646715,520126696,"""world""",,,1.76367032528,-1.35968601704,0.569387197495,,0.000739925657399,-0.0143683506176,-0.680934906006,-0.732202589512
1549646715530769913,,427709,,1549646715,530533198,"""world""",,,1.76365745068,-1.35969722271,0.569381654263,,0.000850617012475,-0.0144774857908,-0.680983185768,-0.732155501842
1549646715540203937,,427710,,1549646715,539987429,"""world""",,,1.76366221905,-1.35971450806,0.569396197796,,0.000802612514235,-0.0143525991589,-0.681024730206,-0.732119381428
1549646715550595261,,427711,,1549646715,550309083,"""world""",,,1.76366889477,-1.35969543457,0.569374918938,,0.000730916508473,-0.0144072566181,-0.680884480476,-0.732248723507
1549646715560892042,,427712,,1549646715,560618080,"""world""",,,1.76367628574,-1.35967290401,0.569388449192,,0.000764987315051,-0.0144260497764,-0.680850625038,-0.732279896736
1549646715560920546,,427713,,1549646715,560650360,"""world""",,,1.76365733147,-1.35968589783,0.569390594959,,0.000883517728653,-0.0143221234903,-0.680889010429,-0.732246041298
1549646715570192793,,427714,,1549646715,569951252,"""world""",,,1.76365232468,-1.35969758034,0.569404900074,,0.000777921348345,-0.0144253410399,-0.681133151054,-0.732017099857
1549646715580621285,,427715,,1549646715,580320924,"""world""",,,1.76364278793,-1.35969281197,0.56940227747,,0.000904976157472,-0.0144729586318,-0.681139469147,-0.732010126114
1549646715589740186,,427716,,1549646715,589531679,"""world""",,,1.76366341114,-1.35967493057,0.569407999516,,0.00103939382825,-0.0144748380408,-0.680953085423,-0.732183277607
1549646715600046239,,427717,,1549646715,599827167,"""world""",,,1.76365864277,-1.35967826843,0.56941562891,,0.000818330561742,-0.0144821051508,-0.680932044983,-0.732203006744
1549646715610403130,,427718,,1549646715,610143848,"""world""",,,1.76365768909,-1.35968780518,0.569413542747,,0.000822287984192,-0.0143734160811,-0.680951833725,-0.732186734676
1549646715610436728,,427719,,1549646715,610175786,"""world""",,,1.76366555691,-1.35969614983,0.569409132004,,0.000832225312479,-0.0143984323367,-0.68099039793,-0.732150375843
1549646715620709860,,427720,,1549646715,620485466,"""world""",,,1.76362502575,-1.3597574234,0.569426417351,,0.000857486622408,-0.0142787182704,-0.681361019611,-0.731807768345
1549646715630013952,,427721,,1549646715,629786535,"""world""",,,1.76363122463,-1.35974466801,0.569406688213,,0.000868125585839,-0.0142163932323,-0.681264281273,-0.731899023056
1549646715640531438,,427722,,1549646715,640264615,"""world""",,,1.76363933086,-1.35974621773,0.569413781166,,0.000849960488267,-0.0143000306562,-0.681272983551,-0.731889367104
1549646715650925545,,427723,,1549646715,650612331,"""world""",,,1.7636436224,-1.35971677303,0.569382429123,,0.000994527130388,-0.0143393808976,-0.681106865406,-0.732042968273
1549646715650956364,,427724,,1549646715,650653909,"""world""",,,1.76364266872,-1.35971355438,0.569386839867,,0.000972085923422,-0.0142910256982,-0.681182801723,-0.731973290443
1549646715660227617,,427725,,1549646715,659962098,"""world""",,,1.76363277435,-1.3596765995,0.569371700287,,0.00100464664865,-0.0142817748711,-0.681026816368,-0.732118487358
1549646715670495857,,427726,,1549646715,670237088,"""world""",,,1.76364898682,-1.35967385769,0.569368481636,,0.000939789810218,-0.0143268136308,-0.68094342947,-0.732195317745
1549646715680770162,,427727,,1549646715,680505978,"""world""",,,1.7636538744,-1.35968184471,0.569370865822,,0.000858096813317,-0.0143008260056,-0.680935978889,-0.73220282793
1549646715690009358,,427728,,1549646715,689797061,"""world""",,,1.76363444328,-1.35970449448,0.56938123703,,0.00104532635305,-0.0143353771418,-0.681074380875,-0.732073187828
1549646715700292864,,427729,,1549646715,700042861,"""world""",,,1.76361513138,-1.35970211029,0.569384872913,,0.00103572197258,-0.0143133234233,-0.681142747402,-0.732010066509
1549646715710713536,,427730,,1549646715,710452253,"""world""",,,1.76360797882,-1.35972356796,0.56939470768,,0.00101596920285,-0.0143489781767,-0.681306004524,-0.731857359409
1549646715720145780,,427731,,1549646715,719858797,"""world""",,,1.76359689236,-1.35973358154,0.569392502308,,0.000935060554184,-0.0142559325323,-0.681302607059,-0.731862545013
1549646715720177202,,427732,,1549646715,719896470,"""world""",,,1.76362466812,-1.35972988605,0.569412410259,,0.000843074172735,-0.0143603598699,-0.681290566921,-0.731871783733
1549646715730429302,,427733,,1549646715,730215709,"""world""",,,1.76360368729,-1.35971188545,0.569396615028,,0.000973669579253,-0.0142831485718,-0.681289851665,-0.731873750687
1549646715740752735,,427734,,1549646715,740534071,"""world""",,,1.76361477375,-1.35970175266,0.569412052631,,0.000900211918633,-0.0143128428608,-0.681198954582,-0.731957912445
1549646715750090276,,427735,,1549646715,749869045,"""world""",,,1.7636089325,-1.35970520973,0.569393217564,,0.000917386787478,-0.0141979614273,-0.68116492033,-0.731991767883
1549646715760452564,,427736,,1549646715,760167817,"""world""",,,1.7636551857,-1.35961258411,0.569400846958,,-4.75920023746e-05,-0.0143214212731,-0.680213570595,-0.73287409544
1549646715760485505,,427737,,1549646715,760192839,"""world""",,,1.76363253593,-1.35970985889,0.569397389889,,0.000805942458101,-0.0141872586682,-0.681129157543,-0.732025444508
1549646715770776230,,427738,,1549646715,770497640,"""world""",,,1.763635993,-1.35972046852,0.569395780563,,0.000790393503848,-0.0140824764967,-0.681139945984,-0.732017457485
1549646715780229850,,427739,,1549646715,779930227,"""world""",,,1.76364898682,-1.3596944809,0.569369137287,,0.000920253340155,-0.01404641103,-0.681077599525,-0.732075929642
1549646715790685490,,427740,,1549646715,790412153,"""world""",,,1.76365244389,-1.35967624187,0.569380760193,,0.000806892116088,-0.0142572186887,-0.680965185165,-0.732176542282
1549646715799983239,,427741,,1549646715,799720864,"""world""",,,1.76365423203,-1.35967457294,0.569377303123,,0.000841958099045,-0.0142855653539,-0.680973172188,-0.732168495655
1549646715810236476,,427742,,1549646715,809984417,"""world""",,,1.76364910603,-1.35964977741,0.569364070892,,0.000941644539125,-0.0142116537318,-0.680961191654,-0.73218101263
1549646715810258936,,427743,,1549646715,810019822,"""world""",,,1.76362669468,-1.35966670513,0.569374382496,,0.000981267075986,-0.0142397489399,-0.681075930595,-0.73207372427
1549646715820537101,,427744,,1549646715,820324780,"""world""",,,1.76363623142,-1.35967814922,0.569371342659,,0.000840410473756,-0.0141724376008,-0.681124746799,-0.732029795647
1549646715829843615,,427745,,1549646715,829568720,"""world""",,,1.76364421844,-1.35967576504,0.569390058517,,0.000738225411624,-0.014209555462,-0.681064844131,-0.732084870338
1549646715840166572,,427746,,1549646715,839904255,"""world""",,,1.7636525631,-1.3596919775,0.569385945797,,0.000692727102432,-0.0141830351204,-0.68113553524,-0.732019662857
1549646715850654123,,427747,,1549646715,850384751,"""world""",,,1.76365375519,-1.35959339142,0.569406867027,,-0.000133764813654,-0.0143968751654,-0.680353760719,-0.732742488384
1549646715850683436,,427748,,1549646715,850420084,"""world""",,,1.76362836361,-1.35961616039,0.569406926632,,-0.000106425373815,-0.0143900196999,-0.680532693863,-0.732576429844
1549646715860112780,,427749,,1549646715,859844388,"""world""",,,1.76362931728,-1.35961043835,0.569403171539,,-4.17273950006e-05,-0.0144231189042,-0.680548429489,-0.732561171055
1549646715870404634,,427750,,1549646715,870199068,"""world""",,,1.76364028454,-1.35968160629,0.569394290447,,0.000912816030905,-0.0143692586571,-0.681110084057,-0.732039511204
1549646715880795610,,427751,,1549646715,880577838,"""world""",,,1.76364934444,-1.35969424248,0.569390952587,,0.00087874440942,-0.0144470212981,-0.681077599525,-0.732068181038
1549646715890163376,,427752,,1549646715,889927807,"""world""",,,1.76364850998,-1.35970306396,0.569384515285,,0.000810424040537,-0.0143650444224,-0.681156814098,-0.731996238232
1549646715900483272,,427753,,1549646715,900203431,"""world""",,,1.76363992691,-1.35971331596,0.569391429424,,0.000783415918704,-0.0144380424172,-0.681207597256,-0.731947541237
1549646715910698617,,427754,,1549646715,910457894,"""world""",,,1.76363515854,-1.35970973969,0.569392979145,,0.000791703758296,-0.0143575919792,-0.681320607662,-0.731843948364
1549646715910729094,,427755,,1549646715,910492150,"""world""",,,1.76363110542,-1.35970473289,0.569377779961,,0.000835129467305,-0.0143116749823,-0.681295692921,-0.731868028641
1549646715920196930,,427756,,1549646715,919841095,"""world""",,,1.76364541054,-1.35970592499,0.569385945797,,0.000739920709748,-0.0143562303856,-0.681269705296,-0.731891393661
1549646715930668699,,427757,,1549646715,930282146,"""world""",,,1.76365423203,-1.35969090462,0.569382846355,,0.000730199972168,-0.0143438018858,-0.68107932806,-0.732068777084
1549646715939913856,,427758,,1549646715,939593514,"""world""",,,1.763682127,-1.35967683792,0.569384813309,,0.000766640005168,-0.0144858211279,-0.681020379066,-0.732120752335
1549646715950537094,,427759,,1549646715,950015944,"""world""",,,1.76368176937,-1.35966718197,0.569348752499,,0.00094144186005,-0.0144637916237,-0.680969417095,-0.732168495655
1549646715960881702,,427760,,1549646715,960396036,"""world""",,,1.76367855072,-1.35966444016,0.569379210472,,0.000835756480228,-0.0144649595022,-0.681013703346,-0.73212736845
1549646715960981862,,427761,,1549646715,960437994,"""world""",,,1.76365149021,-1.35967683792,0.56937789917,,0.000772644241806,-0.0143792955205,-0.681185126305,-0.73196965456
1549646715970215653,,427762,,1549646715,969883258,"""world""",,,1.76366519928,-1.35966515541,0.569356381893,,0.000853558653034,-0.0143836988136,-0.681053340435,-0.732092022896
1549646715980545045,,427763,,1549646715,980258250,"""world""",,,1.76366734505,-1.35966169834,0.569351911545,,0.000929741596337,-0.014299698174,-0.68088966608,-0.732245862484
1549646715989835053,,427764,,1549646715,989527970,"""world""",,,1.76367688179,-1.35965812206,0.569352030754,,0.00078486057464,-0.0142313018441,-0.680957973003,-0.732183814049
1549646716000046412,,427765,,1549646715,999848515,"""world""",,,1.76368761063,-1.35958051682,0.569353938103,,-0.000105932776933,-0.01446307078,-0.680185616016,-0.732897281647
1549646716010426924,,427766,,1549646716,10123806,"""world""",,,1.76371395588,-1.35956680775,0.569353938103,,-7.88254474173e-05,-0.0145151764154,-0.68012213707,-0.732955157757
1549646716010460561,,427767,,1549646716,10164036,"""world""",,,1.76370823383,-1.35954391956,0.569337844849,,-8.7910622824e-05,-0.0145434448496,-0.67998534441,-0.733081459999
1549646716020696568,,427768,,1549646716,20461727,"""world""",,,1.76371026039,-1.35953748226,0.569340288639,,-8.96138444659e-05,-0.0146240210161,-0.680024623871,-0.733043432236
1549646716030053138,,427769,,1549646716,29838539,"""world""",,,1.76370418072,-1.35954797268,0.569349706173,,-0.000127349529066,-0.0144962333143,-0.680096209049,-0.732979536057
1549646716040388297,,427770,,1549646716,40157765,"""world""",,,1.76366746426,-1.35956275463,0.569356501102,,-9.75407892838e-05,-0.0144708259031,-0.68024212122,-0.73284471035
1549646716050735543,,427771,,1549646716,50477915,"""world""",,,1.76365816593,-1.35958302021,0.569348335266,,-1.15255616038e-05,-0.0144967557862,-0.680354773998,-0.732739567757
1549646716060117141,,427772,,1549646716,59871716,"""world""",,,1.76366519928,-1.35955739021,0.569354712963,,-2.92281379188e-06,-0.0144447814673,-0.680215597153,-0.732869803905
1549646716060149044,,427773,,1549646716,59901573,"""world""",,,1.76364350319,-1.35957121849,0.569363057613,,-0.00018587433442,-0.014391656965,-0.680270075798,-0.732820212841
1549646716070526360,,427774,,1549646716,70277496,"""world""",,,1.76364219189,-1.35957944393,0.56936609745,,-0.0002138048294,-0.0143610928208,-0.680457830429,-0.732646524906
1549646716080876608,,427775,,1549646716,80612486,"""world""",,,1.7636423111,-1.35957241058,0.569368481636,,-0.000110873697849,-0.0143116572872,-0.680299520493,-0.732794463634
1549646716090156544,,427776,,1549646716,89927968,"""world""",,,1.76367640495,-1.35955071449,0.569354355335,,-0.000130824599182,-0.0144287412986,-0.680082142353,-0.732993900776
1549646716100892931,,427777,,1549646716,100308705,"""world""",,,1.76365852356,-1.35958921909,0.569371402264,,-0.00011125196761,-0.0143581824377,-0.680380821228,-0.732718169689
1549646716110148342,,427778,,1549646716,109679461,"""world""",,,1.76365590096,-1.35959470272,0.569380044937,,-0.000209419027669,-0.0143697299063,-0.680502533913,-0.732604801655
1549646716110290305,,427779,,1549646716,109723163,"""world""",,,1.76366615295,-1.35959589481,0.569389462471,,-0.000198279376491,-0.0143839875236,-0.680493235588,-0.732613265514
1549646716121667774,,427780,,1549646716,120111633,"""world""",,,1.76366364956,-1.35960388184,0.569366455078,,-7.27955557522e-05,-0.0143446847796,-0.680421292782,-0.732680797577
1549646716130948193,,427781,,1549646716,130566309,"""world""",,,1.76367497444,-1.35960352421,0.569363355637,,8.06235038908e-06,-0.0144299352542,-0.680386304855,-0.732711613178
1549646716140678776,,427782,,1549646716,140046953,"""world""",,,1.76366424561,-1.35963284969,0.569364368916,,-0.000117255040095,-0.0144242867827,-0.680502891541,-0.732603490353
1549646716151007408,,427783,,1549646716,150425216,"""world""",,,1.76366579533,-1.35964500904,0.569374263287,,-0.000185794226127,-0.0144101688638,-0.680555582047,-0.732554793358
1549646716159827273,,427784,,1549646716,159658525,"""world""",,,1.76365160942,-1.35970067978,0.569371342659,,0.000738748000003,-0.0143162822351,-0.681242465973,-0.731917560101
1549646716159850564,,427785,,1549646716,159680032,"""world""",,,1.76364409924,-1.35969388485,0.569364249706,,0.000805751129519,-0.0143165998161,-0.681289970875,-0.731873273849
1549646716170148993,,427786,,1549646716,169913411,"""world""",,,1.76364910603,-1.35968804359,0.569375514984,,0.000797800021246,-0.0142983011901,-0.68119341135,-0.731963515282
1549646716180321788,,427787,,1549646716,180112559,"""world""",,,1.76365220547,-1.35970115662,0.569390296936,,0.000662624370307,-0.0142907956615,-0.681189119816,-0.731967747211
1549646716190883478,,427788,,1549646716,190487259,"""world""",,,1.7636629343,-1.35969400406,0.569385051727,,0.000734381028451,-0.0143754463643,-0.68111795187,-0.732032239437
1549646716200405807,,427789,,1549646716,199893018,"""world""",,,1.7636744976,-1.35968375206,0.569388687611,,0.000721183489077,-0.0144026530907,-0.680969715118,-0.732169687748
1549646716210840383,,427790,,1549646716,210389033,"""world""",,,1.76365447044,-1.35969829559,0.56938123703,,0.000752965046559,-0.0143696758896,-0.681126594543,-0.732024252415
1549646716210897564,,427791,,1549646716,210453782,"""world""",,,1.76366364956,-1.35963010788,0.569412469864,,-0.000269719719654,-0.0144524434581,-0.680473506451,-0.732630133629
1549646716220371917,,427792,,1549646716,219932771,"""world""",,,1.76367199421,-1.35968518257,0.569390058517,,0.000758724287152,-0.0143549377099,-0.681056559086,-0.732089757919
1549646716230800386,,427793,,1549646716,230446317,"""world""",,,1.76366686821,-1.3597022295,0.569388508797,,0.000818627187982,-0.0143286911771,-0.681199908257,-0.731956839561
1549646716240263536,,427794,,1549646716,239901430,"""world""",,,1.76368224621,-1.3596804142,0.569403290749,,0.000742826552596,-0.0143505195156,-0.68106251955,-0.732084333897
1549646716250755155,,427795,,1549646716,250323077,"""world""",,,1.76369833946,-1.35958635807,0.569416463375,,-0.000201984395972,-0.0145171359181,-0.680358827114,-0.732735335827
1549646716260073816,,427796,,1549646716,259662766,"""world""",,,1.76366841793,-1.35968255997,0.569377720356,,0.000793751387391,-0.0143005298451,-0.681184470654,-0.731971800327
1549646716260143988,,427797,,1549646716,259736052,"""world""",,,1.76366961002,-1.35969054699,0.569402217865,,0.000720391457435,-0.014212581329,-0.681222140789,-0.731938481331
1549646716270521516,,427798,,1549646716,270239472,"""world""",,,1.76368021965,-1.35959208012,0.569410979748,,-0.000157920861966,-0.0143875041977,-0.680400848389,-0.732698976994
1549646716280728001,,427799,,1549646716,280593958,"""world""",,,1.76368582249,-1.35968410969,0.569386601448,,0.000716270064004,-0.0142288208008,-0.6811658144,-0.731990635395
1549646716290185339,,427800,,1549646716,289931885,"""world""",,,1.76369154453,-1.35968565941,0.569389343262,,0.000710516469553,-0.0142019204795,-0.681001424789,-0.732143998146
1549646716300336427,,427801,,1549646716,300158647,"""world""",,,1.76367366314,-1.3597060442,0.569410324097,,0.000710732594598,-0.0142172891647,-0.681051492691,-0.7320972085
1549646716309943409,,427802,,1549646716,309729204,"""world""",,,1.76365435123,-1.35972619057,0.569410145283,,0.00078317761654,-0.0141291115433,-0.68103402853,-0.732115089893
1549646716309967383,,427803,,1549646716,309754878,"""world""",,,1.76367115974,-1.35970926285,0.569408178329,,0.000786199932918,-0.014199285768,-0.68096613884,-0.73217689991
1549646716320298319,,427804,,1549646716,320119537,"""world""",,,1.76368236542,-1.3597060442,0.569396734238,,0.000887053145561,-0.0143201509491,-0.680941879749,-0.732196927071
1549646716330647592,,427805,,1549646716,330481988,"""world""",,,1.76367545128,-1.35971391201,0.569404363632,,0.000816150684841,-0.0141847711056,-0.681081056595,-0.732070207596
1549646716340000257,,427806,,1549646716,339830552,"""world""",,,1.76368784904,-1.35969614983,0.569420158863,,0.000701227691025,-0.0142570920289,-0.681051313877,-0.732096612453
1549646716350348875,,427807,,1549646716,350120519,"""world""",,,1.76369571686,-1.35968112946,0.569438815117,,0.000682837679051,-0.0143042318523,-0.68102234602,-0.732122659683
1549646716360613029,,427808,,1549646716,360427009,"""world""",,,1.76368939877,-1.35965716839,0.569436132908,,0.000697003037203,-0.0143162999302,-0.680983364582,-0.732158660889
1549646716360635482,,427809,,1549646716,360452806,"""world""",,,1.7637014389,-1.35966551304,0.569438397884,,0.000749669212382,-0.0143192913383,-0.681114912033,-0.732036173344
1549646716370000506,,427810,,1549646716,369828944,"""world""",,,1.763702631,-1.35966134071,0.569433689117,,0.000895393779501,-0.0143611161038,-0.681092321873,-0.732056260109
1549646716380365172,,427811,,1549646716,380188658,"""world""",,,1.76370429993,-1.35966980457,0.569430470467,,0.000853876990732,-0.0143325421959,-0.681053161621,-0.732093214989
1549646716390642334,,427812,,1549646716,390456977,"""world""",,,1.76370823383,-1.35967850685,0.569430470467,,0.000811297330074,-0.0142450602725,-0.681016027927,-0.732129514217
1549646716399911804,,427813,,1549646716,399733432,"""world""",,,1.76370191574,-1.35967993736,0.569406330585,,0.000857709848788,-0.0141383400187,-0.681123733521,-0.732031345367
1549646716410222743,,427814,,1549646716,410012577,"""world""",,,1.76371240616,-1.35966849327,0.56940048933,,0.00078614911763,-0.0140705499798,-0.68091148138,-0.732230126858
1549646716410238185,,427815,,1549646716,410034567,"""world""",,,1.76370501518,-1.35963010788,0.569437921047,,-0.000264534377493,-0.0143109094352,-0.680343687534,-0.732753455639
1549646716420742525,,427816,,1549646716,420344901,"""world""",,,1.76369595528,-1.35970175266,0.569426119328,,0.000629832793493,-0.0141827417538,-0.681056499481,-0.732093334198
1549646716430049121,,427817,,1549646716,429875093,"""world""",,,1.76367759705,-1.35971546173,0.56940972805,,0.000662204402033,-0.0142239183187,-0.681216776371,-0.731943368912
1549646716440419756,,427818,,1549646716,440213400,"""world""",,,1.76366353035,-1.35972261429,0.569423615932,,0.000561195833143,-0.0140897622332,-0.681237578392,-0.731926620007
1549646716450616344,,427819,,1549646716,450446646,"""world""",,,1.76365506649,-1.35965168476,0.569420218468,,-0.000312180636683,-0.0142369512469,-0.680650413036,-0.732469975948
1549646716450633995,,427820,,1549646716,450471180,"""world""",,,1.76366221905,-1.3597137928,0.569380521774,,0.00071945093805,-0.0140854008496,-0.681234240532,-0.731929659843
1549646716459995157,,427821,,1549646716,459821378,"""world""",,,1.76366186142,-1.35973322392,0.569382965565,,0.000649682886433,-0.0140674607828,-0.681250333786,-0.73191511631
1549646716470353679,,427822,,1549646716,470177459,"""world""",,,1.76365542412,-1.3597291708,0.569372951984,,0.000770266924519,-0.0140968114138,-0.681218981743,-0.73194360733
1549646716480690086,,427823,,1549646716,480495447,"""world""",,,1.76367223263,-1.35964095592,0.569411754608,,-0.000266016984824,-0.0143487863243,-0.680441081524,-0.732662320137
1549646716490090745,,427824,,1549646716,489842509,"""world""",,,1.76366150379,-1.35971772671,0.569383144379,,0.000709514250048,-0.0140842711553,-0.68120855093,-0.731953620911
1549646716500297825,,427825,,1549646716,500113193,"""world""",,,1.76366889477,-1.35970246792,0.569369256496,,0.000746506324504,-0.0140997217968,-0.681212484837,-0.731949567795
1549646716510718729,,427826,,1549646716,510537680,"""world""",,,1.76367115974,-1.35971081257,0.569376528263,,0.000678669544868,-0.0142350560054,-0.681161701679,-0.731994390488
1549646716510744160,,427827,,1549646716,510562016,"""world""",,,1.76365804672,-1.3597176075,0.569362521172,,0.000739853479899,-0.0141801936552,-0.68108946085,-0.732062518597
1549646716520090163,,427828,,1549646716,519910042,"""world""",,,1.7636654377,-1.35969853401,0.569364547729,,0.000788867240772,-0.0143078286201,-0.681151390076,-0.732002437115
1549646716530323826,,427829,,1549646716,530149361,"""world""",,,1.76369178295,-1.35959553719,0.56938791275,,-0.000189638638403,-0.014560517855,-0.680414795876,-0.732682526112
1549646716541027676,,427830,,1549646716,540590042,"""world""",,,1.76368653774,-1.35960626602,0.569388210773,,-0.000201705726795,-0.0146103557199,-0.680390357971,-0.732704281807
1549646716550454910,,427831,,1549646716,550063070,"""world""",,,1.76368904114,-1.35961425304,0.569412052631,,-0.000328969181282,-0.0145363444462,-0.680404484272,-0.732692539692
1549646716561616147,,427832,,1549646716,560497549,"""world""",,,1.76369297504,-1.35967195034,0.569388151169,,0.000699512544088,-0.0144415134564,-0.680886566639,-0.732246160507
1549646716561631819,,427833,,1549646716,560552119,"""world""",,,1.76367664337,-1.35970473289,0.569390952587,,0.000653351366054,-0.0144278667867,-0.681094050407,-0.732053518295
1549646716570407235,,427834,,1549646716,569965743,"""world""",,,1.76366782188,-1.35969090462,0.569398760796,,0.00063209887594,-0.0144141837955,-0.681075036526,-0.732071518898
1549646716580769485,,427835,,1549646716,580334840,"""world""",,,1.76365947723,-1.35963714123,0.569403648376,,-0.000291583972285,-0.014472393319,-0.680470049381,-0.732632935047
1549646716590096925,,427836,,1549646716,589658880,"""world""",,,1.76366567612,-1.35963630676,0.569399476051,,-0.000236997278989,-0.0145011497661,-0.680439829826,-0.732660472393
1549646716600420673,,427837,,1549646716,600058372,"""world""",,,1.76366686821,-1.35970389843,0.569407939911,,0.000659709272441,-0.0144261056557,-0.680862903595,-0.732268512249
1549646716610900995,,427838,,1549646716,610507629,"""world""",,,1.763671875,-1.35970675945,0.569405078888,,0.000692195841111,-0.0144186643884,-0.68093419075,-0.732202351093
1549646716610935886,,427839,,1549646716,610564486,"""world""",,,1.76367616653,-1.35970544815,0.569434463978,,0.000718913157471,-0.0144236637279,-0.680829524994,-0.732299566269
1549646716620675330,,427840,,1549646716,620188921,"""world""",,,1.76367878914,-1.35970914364,0.569427669048,,0.000851524411701,-0.0144067648798,-0.680741071701,-0.732381939888
1549646716630388619,,427841,,1549646716,629904110,"""world""",,,1.76368069649,-1.35972321033,0.569430351257,,0.000843291520141,-0.0144072920084,-0.680874407291,-0.732257962227
1549646716640771675,,427842,,1549646716,640397086,"""world""",,,1.76367557049,-1.35970962048,0.569421410561,,0.000938718090765,-0.0143529558554,-0.680808842182,-0.732319891453
1549646716649938792,,427843,,1549646716,649740751,"""world""",,,1.7636796236,-1.35972118378,0.569423019886,,0.000874576915521,-0.0142597993836,-0.68086785078,-0.732267022133
1549646716660328712,,427844,,1549646716,660041456,"""world""",,,1.7636629343,-1.3597162962,0.569431781769,,0.000814825645648,-0.0142816947773,-0.68094599247,-0.732193887234
1549646716660355809,,427845,,1549646716,660070492,"""world""",,,1.76367175579,-1.35970985889,0.56940728426,,0.000892147072591,-0.0143424319103,-0.680960059166,-0.732179641724
1549646716670730149,,427846,,1549646716,670456827,"""world""",,,1.76367115974,-1.35970282555,0.569412469864,,0.000751964224037,-0.0143900904804,-0.680948913097,-0.732189178467
1549646716679997012,,427847,,1549646716,679730240,"""world""",,,1.76369249821,-1.35966610909,0.569396317005,,0.000891343690455,-0.0144539223984,-0.680720448494,-0.732400238514
1549646716690301773,,427848,,1549646716,690051787,"""world""",,,1.76369071007,-1.35965895653,0.569378554821,,0.000929407600779,-0.0144067881629,-0.680797994137,-0.732328951359
1549646716700613621,,427849,,1549646716,700335064,"""world""",,,1.76368463039,-1.35967135429,0.569387376308,,0.000961904239375,-0.0143914809451,-0.680839061737,-0.732291042805
1549646716709824040,,427850,,1549646716,709576738,"""world""",,,1.76370191574,-1.35967969894,0.569371879101,,0.000862144806888,-0.014341137372,-0.680747568607,-0.732377290726
1549646716709851941,,427851,,1549646716,709608855,"""world""",,,1.76370942593,-1.3596675396,0.569370985031,,0.000901211402379,-0.0144117446616,-0.680706858635,-0.732413649559
1549646716720302992,,427852,,1549646716,719954552,"""world""",,,1.76372027397,-1.35965037346,0.569370210171,,0.000789310084656,-0.0144579522312,-0.68067920208,-0.732438564301
1549646716730507525,,427853,,1549646716,730270036,"""world""",,,1.76371061802,-1.35967051983,0.569382548332,,0.000809222925454,-0.0144888600335,-0.680729806423,-0.732390880585
1549646716740920253,,427854,,1549646716,740659976,"""world""",,,1.76371002197,-1.35966813564,0.569379687309,,0.000798399560153,-0.0144191784784,-0.680805802345,-0.732321619987
1549646716750372355,,427855,,1549646716,750157424,"""world""",,,1.76370871067,-1.3596599102,0.569359004498,,0.000866426562425,-0.0143272345886,-0.680796444416,-0.7323320508
1549646716760748764,,427856,,1549646716,760434063,"""world""",,,1.76370227337,-1.35965240002,0.569351196289,,0.000927669520024,-0.0143866483122,-0.680786013603,-0.732340574265
1549646716760785684,,427857,,1549646716,760470774,"""world""",,,1.76370179653,-1.35964822769,0.56935107708,,0.000985717400908,-0.0143866660073,-0.680772900581,-0.732352674007
1549646716770138128,,427858,,1549646716,769860852,"""world""",,,1.76370930672,-1.3596419096,0.56936019659,,0.000908456393518,-0.0143651487306,-0.68067163229,-0.732447326183
1549646716780579122,,427859,,1549646716,780269449,"""world""",,,1.76368165016,-1.35965800285,0.56936198473,,0.00102163187694,-0.0143972830847,-0.680744230747,-0.73237901926
1549646716790899737,,427860,,1549646716,790629754,"""world""",,,1.76366889477,-1.3596881628,0.569363594055,,0.00110554671846,-0.0143022015691,-0.680770754814,-0.732356131077
1549646716800162630,,427861,,1549646716,799943600,"""world""",,,1.76367032528,-1.35969638824,0.569363534451,,0.000973943853751,-0.0143401743844,-0.680837452412,-0.732293605804
1549646716810525441,,427862,,1549646716,810293808,"""world""",,,1.76366531849,-1.35970497131,0.569370210171,,0.000956329982728,-0.0142731368542,-0.680828928947,-0.73230278492
1549646716820062007,,427863,,1549646716,819631660,"""world""",,,1.76366746426,-1.35969400406,0.569393157959,,0.000796505366452,-0.0142760165036,-0.680915594101,-0.732222378254
1549646716820098447,,427864,,1549646716,819693364,"""world""",,,1.76366639137,-1.35968148708,0.569389402866,,0.000800058129244,-0.0142987752333,-0.68075889349,-0.732367575169
1549646716830532484,,427865,,1549646716,830093807,"""world""",,,1.76366364956,-1.35969626904,0.569389462471,,0.000879272003658,-0.0143390083686,-0.680898368359,-0.732237040997
1549646716840863754,,427866,,1549646716,840489681,"""world""",,,1.76364982128,-1.35972094536,0.569410324097,,0.000808015814982,-0.0143673243001,-0.680988073349,-0.732153177261
1549646716850354212,,427867,,1549646716,849991146,"""world""",,,1.76365661621,-1.35971319675,0.569397985935,,0.000910774397198,-0.014344483614,-0.681026041508,-0.732118189335
1549646716860876657,,427868,,1549646716,860474180,"""world""",,,1.7636603117,-1.35973370075,0.569406270981,,0.000787836848758,-0.014363556169,-0.681055128574,-0.732090890408
1549646716860937152,,427869,,1549646716,860532055,"""world""",,,1.76367199421,-1.35971081257,0.569391608238,,0.000872187200002,-0.0144281210378,-0.680874586105,-0.73225748539
1549646716870405187,,427870,,1549646716,869961731,"""world""",,,1.76364731789,-1.35974550247,0.569389104843,,0.000851506076287,-0.0142901074141,-0.681081175804,-0.732068061829
1549646716880852346,,427871,,1549646716,880387839,"""world""",,,1.763656497,-1.35974609852,0.569411814213,,0.000780750473496,-0.0142577309161,-0.681219160557,-0.731940329075
1549646716890071292,,427872,,1549646716,889817324,"""world""",,,1.76365017891,-1.35974121094,0.569412112236,,0.000871099124197,-0.0142903337255,-0.681258559227,-0.731902897358
1549646716900526610,,427873,,1549646716,900245220,"""world""",,,1.76364696026,-1.3597369194,0.569411218166,,0.00084052211605,-0.0141766006127,-0.681244552135,-0.731918156147
1549646716910937308,,427874,,1549646716,910570686,"""world""",,,1.76364302635,-1.35976016521,0.569411158562,,0.000792332517449,-0.0142739191651,-0.681452453136,-0.731722772121
1549646716910989527,,427875,,1549646716,910604545,"""world""",,,1.7636436224,-1.35974431038,0.569395661354,,0.000768858240917,-0.0143120652065,-0.681315422058,-0.73184967041
1549646716920187047,,427876,,1549646716,919909606,"""world""",,,1.76365029812,-1.35974252224,0.569399595261,,0.000854326994158,-0.0143367676064,-0.681257069111,-0.7319034338
1549646716930654936,,427877,,1549646716,930341977,"""world""",,,1.76366233826,-1.35973668098,0.56938713789,,0.000814863364212,-0.0143479881808,-0.681152701378,-0.732000410557
1549646716939864120,,427878,,1549646716,939640968,"""world""",,,1.76364207268,-1.35972762108,0.569379389286,,0.000810355762951,-0.0142752639949,-0.681154251099,-0.732000291348
1549646716950178235,,427879,,1549646716,949922820,"""world""",,,1.76364612579,-1.35971653461,0.569385528564,,0.000725706689991,-0.0143490703776,-0.68113142252,-0.732020258904
1549646716960448138,,427880,,1549646716,960188601,"""world""",,,1.76364862919,-1.35974085331,0.56939458847,,0.00076822238043,-0.0143307615072,-0.681204140186,-0.731952905655
1549646716960480422,,427881,,1549646716,960222089,"""world""",,,1.76364672184,-1.35971844196,0.569386839867,,0.000830609060358,-0.0143617102876,-0.68113976717,-0.732012033463
1549646716970808999,,427882,,1549646716,970583758,"""world""",,,1.76365506649,-1.35970342159,0.569393157959,,0.000801688234787,-0.014299175702,-0.681128203869,-0.732024073601
1549646716980110195,,427883,,1549646716,979870098,"""world""",,,1.7636475563,-1.35971844196,0.569380581379,,0.000883914413862,-0.0143992109224,-0.681271731853,-0.731888473034
1549646716990428574,,427884,,1549646716,990179548,"""world""",,,1.76364934444,-1.35972452164,0.569388329983,,0.000922815292142,-0.0142853418365,-0.681416273117,-0.731756150723
1549646717000704844,,427885,,1549646717,453899,"""world""",,,1.76366329193,-1.35972094536,0.569389402866,,0.000895754725207,-0.0141916582361,-0.68126386404,-0.731899917126
1549646717010034729,,427886,,1549646717,9757357,"""world""",,,1.7636551857,-1.35971343517,0.569388270378,,0.000977045856416,-0.0143004925922,-0.681266069412,-0.731895565987
1549646717010060247,,427887,,1549646717,9790306,"""world""",,,1.76366555691,-1.35972356796,0.569380104542,,0.00096534169279,-0.0142758414149,-0.681237697601,-0.731922507286
1549646717020274551,,427888,,1549646717,20066027,"""world""",,,1.76365160942,-1.3596957922,0.569377779961,,0.000880198320374,-0.0142615111545,-0.681076824665,-0.732072591782
1549646717030700596,,427889,,1549646717,30459526,"""world""",,,1.76366102695,-1.35967814922,0.569357812405,,0.000841153960209,-0.0142256477848,-0.681082367897,-0.732068121433
1549646717040396699,,427890,,1549646717,40146093,"""world""",,,1.76363837719,-1.35967803001,0.56936621666,,0.000888644251972,-0.0142069086432,-0.681051850319,-0.732096850872
1549646717050803845,,427891,,1549646717,50498098,"""world""",,,1.76365184784,-1.35968482494,0.569357037544,,0.000886264897417,-0.014133810997,-0.681050539017,-0.732099533081
1549646717050832809,,427892,,1549646717,50533748,"""world""",,,1.76366758347,-1.35967612267,0.569352805614,,0.000889570917934,-0.0142079330981,-0.68106508255,-0.732084572315
1549646717070277478,,427893,,1549646717,69985669,"""world""",,,1.76365792751,-1.35968065262,0.569365262985,,0.000914812611882,-0.0142048019916,-0.681056499481,-0.732092618942
1549646717070302877,,427894,,1549646717,70010825,"""world""",,,1.7636526823,-1.35967230797,0.56936609745,,0.000848542142194,-0.0142349628732,-0.681030988693,-0.732115805149
1549646717080509089,,427895,,1549646717,80241225,"""world""",,,1.76364123821,-1.35968017578,0.569354653358,,0.000906609755475,-0.0142036881298,-0.68112641573,-0.732027471066
1549646717090758226,,427896,,1549646717,90491126,"""world""",,,1.76364457607,-1.35968971252,0.569348454475,,0.000917986792047,-0.0142473215237,-0.68111294508,-0.732039213181
1549646717100036929,,427897,,1549646717,99787713,"""world""",,,1.76364672184,-1.35966360569,0.569335281849,,0.000946897314861,-0.0142489252612,-0.680857241154,-0.732276916504
1549646717110413272,,427898,,1549646717,110110721,"""world""",,,1.76366949081,-1.35964429379,0.569347321987,,0.000886214897037,-0.0143421385437,-0.680810987949,-0.732318222523
1549646717110446955,,427899,,1549646717,110143135,"""world""",,,1.76365804672,-1.35965716839,0.569357335567,,0.000835684302729,-0.0143486810848,-0.680915355682,-0.732221066952
1549646717120947103,,427900,,1549646717,120587613,"""world""",,,1.76366257668,-1.35966157913,0.569349527359,,0.000757006695494,-0.0143275074661,-0.680945396423,-0.73219370842
1549646717130796591,,427901,,1549646717,130481385,"""world""",,,1.76364409924,-1.35966551304,0.569355666637,,0.00078691507224,-0.0142302876338,-0.681017816067,-0.732128143311
1549646717140082662,,427902,,1549646717,139819165,"""world""",,,1.76365876198,-1.35960364342,0.569384276867,,-0.000237556159846,-0.014325177297,-0.68022018671,-0.732867777348
1549646717150525221,,427903,,1549646717,150275612,"""world""",,,1.76366603374,-1.35962080956,0.569382846355,,-0.000266794842901,-0.0143504422158,-0.680248856544,-0.732840716839
1549646717160913526,,427904,,1549646717,160638190,"""world""",,,1.76365602016,-1.35970616341,0.569361925125,,0.00063919252716,-0.0141924191266,-0.681126654148,-0.732027769089
1549646717160951394,,427905,,1549646717,160669333,"""world""",,,1.76361942291,-1.35971701145,0.569372415543,,0.000729821796995,-0.0141425803304,-0.68134188652,-0.731828331947
1549646717170185364,,427906,,1549646717,169932551,"""world""",,,1.76362144947,-1.35972440243,0.569388866425,,0.000612742442172,-0.0142274918035,-0.681353151798,-0.731816291809
1549646717180571481,,427907,,1549646717,180272005,"""world""",,,1.7635846138,-1.35979425907,0.569372653961,,0.000631653878372,-0.0140917571262,-0.6816188097,-0.731571495533
1549646717189876766,,427908,,1549646717,189614333,"""world""",,,1.76358294487,-1.3600461483,0.569332957268,,0.000179764843779,-0.0137122413144,-0.681355297565,-0.731824398041
1549646717200111091,,427909,,1549646717,199882150,"""world""",,,1.76354575157,-1.36025309563,0.569318115711,,-0.00105566100683,-0.0136337075382,-0.680549144745,-0.732574820518
1549646717210490771,,427910,,1549646717,210179647,"""world""",,,1.76351249218,-1.36031198502,0.569307208061,,-0.00116342445835,-0.0133159430698,-0.68037456274,-0.732742667198
1549646717210588769,,427911,,1549646717,210214114,"""world""",,,1.76353287697,-1.3601795435,0.569281995296,,-0.000254013400991,-0.0131707815453,-0.680805742741,-0.732345581055
1549646717220742755,,427912,,1549646717,220513386,"""world""",,,1.76360976696,-1.35961210728,0.569308459759,,-0.000859071849845,-0.0135458502918,-0.679914057255,-0.733166158199
1549646717230085719,,427913,,1549646717,229850891,"""world""",,,1.76368451118,-1.35899424553,0.569295287132,,-0.000503323448356,-0.0137427989393,-0.679881334305,-0.733193159103
1549646717240568107,,427914,,1549646717,240280562,"""world""",,,1.76369309425,-1.35835695267,0.569327175617,,-5.43546702829e-05,-0.0142262475565,-0.679839491844,-0.733222901821
1549646717249846404,,427915,,1549646717,249562259,"""world""",,,1.76374018192,-1.35774111748,0.569339215755,,0.000201426621061,-0.0143547914922,-0.680021703243,-0.733051419258
1549646717260170580,,427916,,1549646717,259890992,"""world""",,,1.7637553215,-1.35719776154,0.569378435612,,0.000410746899433,-0.0146252540872,-0.680131494999,-0.732944130898
1549646717260201903,,427917,,1549646717,259920825,"""world""",,,1.76374530792,-1.35676133633,0.569400250912,,0.000433987384895,-0.0145931011066,-0.680418729782,-0.732678174973
1549646717270525096,,427918,,1549646717,270244852,"""world""",,,1.76373815536,-1.35624969006,0.569352149963,,0.000665782601573,-0.0146524962038,-0.680116772652,-0.73295712471
1549646717280977524,,427919,,1549646717,280639233,"""world""",,,1.76374387741,-1.35604071617,0.56938046217,,0.000427468621638,-0.0145898349583,-0.680518627167,-0.732585430145
1549646717290540818,,427920,,1549646717,290315416,"""world""",,,1.76376140118,-1.35584020615,0.569366276264,,0.000444979115855,-0.0145579213277,-0.680548667908,-0.732558131218
1549646717300832585,,427921,,1549646717,300595713,"""world""",,,1.7637796402,-1.35569560528,0.569340705872,,0.000424048746936,-0.0145016750321,-0.680514633656,-0.732590973377
1549646717310383998,,427922,,1549646717,310116640,"""world""",,,1.76381230354,-1.35551059246,0.569330155849,,0.000363982224371,-0.0144486613572,-0.680447816849,-0.732654035091
1549646717310412301,,427923,,1549646717,310144322,"""world""",,,1.763884902,-1.35537111759,0.569244682789,,0.000472476909636,-0.0139312297106,-0.68093341589,-0.732212662697
1549646717321586307,,427924,,1549646717,321344862,"""world""",,,1.76397776604,-1.35514450073,0.569258451462,,0.000340715749189,-0.0137109011412,-0.681035757065,-0.732121706009
1549646717329872746,,427925,,1549646717,329599696,"""world""",,,1.76412177086,-1.35486352444,0.569379270077,,0.000642627070192,-0.0147682409734,-0.681356787682,-0.731802225113
1549646717340195671,,427926,,1549646717,339885112,"""world""",,,1.76416778564,-1.35450470448,0.569352269173,,0.000958578777499,-0.0145377013832,-0.681087017059,-0.732057511806
1549646717350587255,,427927,,1549646717,350270101,"""world""",,,1.76435410976,-1.35412812233,0.569405198097,,0.000972381443717,-0.014863697812,-0.68136960268,-0.731787919998
1549646717360783238,,427928,,1549646717,360550466,"""world""",,,1.76444375515,-1.3537530899,0.56939381361,,0.000938179728109,-0.0145262870938,-0.680951237679,-0.732184052467
1549646717360815814,,427929,,1549646717,360584327,"""world""",,,1.76448380947,-1.35353279114,0.569472908974,,0.000841760542244,-0.0145289078355,-0.68203407526,-0.731175601482
1549646717370095352,,427930,,1549646717,369850459,"""world""",,,1.76461219788,-1.35324680805,0.569467425346,,0.00094411795726,-0.0143827544525,-0.681986510754,-0.731222748756
1549646717380467815,,427931,,1549646717,380200515,"""world""",,,1.7646856308,-1.35306310654,0.569472134113,,0.000986993894912,-0.0143870776519,-0.682113111019,-0.731104552746
1549646717390916794,,427932,,1549646717,390474576,"""world""",,,1.76469027996,-1.3529882431,0.569486498833,,0.000968069129158,-0.0141309406608,-0.682056844234,-0.731162011623
1549646717400459591,,427933,,1549646717,400209734,"""world""",,,1.76470530033,-1.3529381752,0.569471240044,,0.000866374524776,-0.0139918997884,-0.68204241991,-0.731178343296
1549646717410740358,,427934,,1549646717,410466322,"""world""",,,1.76469397545,-1.35290706158,0.569412112236,,0.000845316099003,-0.0137666258961,-0.681843698025,-0.731367945671
1549646717410774601,,427935,,1549646717,410490094,"""world""",,,1.76462650299,-1.35286033154,0.569409191608,,0.00079977576388,-0.0134908426553,-0.681839108467,-0.73137742281
1549646717419982700,,427936,,1549646717,419729027,"""world""",,,1.76455295086,-1.35275006294,0.56932258606,,0.000321185711073,-0.012969459407,-0.681737542152,-0.731481790543
1549646717430253335,,427937,,1549646717,430040585,"""world""",,,1.76443970203,-1.35262322426,0.569307863712,,0.00039064604789,-0.0127903968096,-0.681841254234,-0.731388270855
1549646717440651779,,427938,,1549646717,440440963,"""world""",,,1.76430976391,-1.35247683525,0.569386422634,,0.00084820529446,-0.0130777284503,-0.682212591171,-0.731036424637
1549646717449991611,,427939,,1549646717,449762402,"""world""",,,1.76415979862,-1.3522695303,0.569451510906,,0.0012454566313,-0.013022349216,-0.682403922081,-0.730858266354
1549646717460505594,,427940,,1549646717,460151985,"""world""",,,1.7642980814,-1.35208845139,0.56946772337,,0.000448472914286,-0.0137188481167,-0.683414101601,-0.729901969433
1549646717460571772,,427941,,1549646717,460188139,"""world""",,,1.76451182365,-1.35141789913,0.569426417351,,0.000780846632551,-0.0141832567751,-0.68126064539,-0.731903135777
1549646717470819473,,427942,,1549646717,470541238,"""world""",,,1.76451790333,-1.3510774374,0.569449603558,,0.000594468379859,-0.0142460148782,-0.680842459202,-0.732291162014
1549646717480117462,,427943,,1549646717,479888867,"""world""",,,1.76449537277,-1.35089123249,0.569449901581,,0.000656225136481,-0.0142514677718,-0.680800318718,-0.732330143452
1549646717490518959,,427944,,1549646717,490282599,"""world""",,,1.7644803524,-1.35078525543,0.569462358952,,0.000541569082998,-0.0142987705767,-0.68080753088,-0.732322573662
1549646717501159877,,427945,,1549646717,500684697,"""world""",,,1.76446557045,-1.35071885586,0.569452643394,,0.000416098308051,-0.0141120404005,-0.680770039558,-0.732361197472
1549646717501254909,,427946,,1549646717,500747734,"""world""",,,1.76448464394,-1.3506706953,0.569444000721,,0.000195418411749,-0.0139316748828,-0.680787205696,-0.732348799706
1549646717521688163,,427947,,1549646717,521242008,"""world""",,,1.7645509243,-1.35060369968,0.569441974163,,9.27130677155e-05,-0.0138915488496,-0.680806994438,-0.732331216335
1549646717521733449,,427948,,1549646717,521280793,"""world""",,,1.76462352276,-1.35047996044,0.569412827492,,0.000190551989363,-0.0137784127146,-0.680841505527,-0.732301235199
1549646717531022150,,427949,,1549646717,530640805,"""world""",,,1.7647600174,-1.35037779808,0.569409608841,,-0.000306545058265,-0.0137578118593,-0.681031644344,-0.732124745846
1549646717540751482,,427950,,1549646717,540211601,"""world""",,,1.76487183571,-1.35014212132,0.569414496422,,-0.000374567345716,-0.0138345398009,-0.680984079838,-0.732167482376
1549646717550802267,,427951,,1549646717,550574092,"""world""",,,1.76493966579,-1.34988045692,0.569432497025,,-0.000298044469673,-0.0140629503876,-0.681272625923,-0.731894671917
1549646717560152314,,427952,,1549646717,559879464,"""world""",,,1.76492094994,-1.34954357147,0.569426417351,,0.000405512575526,-0.0137406475842,-0.6813621521,-0.731817364693
1549646717560173192,,427953,,1549646717,559906401,"""world""",,,1.76495671272,-1.34922027588,0.569433391094,,0.000477035151562,-0.013647521846,-0.681515097618,-0.731676697731
1549646717570509133,,427954,,1549646717,570205435,"""world""",,,1.76504004002,-1.34887075424,0.569462239742,,0.000581530155614,-0.0140245100483,-0.681549727917,-0.731637239456
1549646717580973182,,427955,,1549646717,580566081,"""world""",,,1.76509165764,-1.34865510464,0.569438278675,,0.000346928078216,-0.0139199085534,-0.681860327721,-0.731349825859
1549646717590233789,,427956,,1549646717,589899020,"""world""",,,1.76511883736,-1.34842097759,0.569452404976,,0.000258332642261,-0.0140002993867,-0.682019948959,-0.73119956255
1549646717600682252,,427957,,1549646717,600253926,"""world""",,,1.7650539875,-1.34818041325,0.569453835487,,0.000388418295188,-0.0138897243887,-0.681949555874,-0.731267213821
1549646717611042788,,427958,,1549646717,610607097,"""world""",,,1.76488041878,-1.34780681133,0.56943243742,,0.000927898916416,-0.0136041156948,-0.680731892586,-0.732405781746
1549646717611096389,,427959,,1549646717,610646949,"""world""",,,1.76480150223,-1.34764409065,0.569427013397,,0.000972946174443,-0.0136435907334,-0.680989265442,-0.732165694237
1549646717620283969,,427960,,1549646717,620014180,"""world""",,,1.76475560665,-1.34743201733,0.5694257617,,0.00106953771319,-0.0135404020548,-0.68097114563,-0.732184290886
1549646717630507186,,427961,,1549646717,630336110,"""world""",,,1.76471853256,-1.34717643261,0.569407343864,,0.00117504398804,-0.0135879144073,-0.681023180485,-0.732134819031
1549646717639706524,,427962,,1549646717,639531000,"""world""",,,1.76469254494,-1.34691250324,0.569423019886,,0.00127823348157,-0.0135859027505,-0.68097448349,-0.732180058956
1549646717650104447,,427963,,1549646717,649923202,"""world""",,,1.76482474804,-1.34675168991,0.569507241249,,0.000794700696133,-0.0140297813341,-0.681967377663,-0.731247544289
1549646717661933582,,427964,,1549646717,660149344,"""world""",,,1.76486194134,-1.34646141529,0.56950032711,,0.000643299776129,-0.0139310257509,-0.681829035282,-0.731378614902
1549646717661948263,,427965,,1549646717,660168521,"""world""",,,1.76489806175,-1.34616577625,0.569508314133,,0.00065008160891,-0.013769400306,-0.681816577911,-0.731393277645
