rosbagTimestamp,header,seq,stamp,secs,nsecs,frame_id,pose,position,x,y,z,orientation,x,y,z,w
1549647133871111438,,477676,,1549647133,870172642,"""world""",,,1.77981579304,-1.31393575668,0.569427132607,,-0.0015082367463,0.0122098010033,0.695403337479,0.718514323235
1549647133880620651,,477677,,1549647133,880477293,"""world""",,,1.77983045578,-1.31389832497,0.569432258606,,-0.00165746023413,0.0122233759612,0.695177853107,0.718731939793
1549647133880652788,,477678,,1549647133,880498590,"""world""",,,1.7798333168,-1.31389164925,0.569435715675,,-0.00161247455981,0.0121851311997,0.695069313049,0.718837678432
1549647133900085433,,477679,,1549647133,899949823,"""world""",,,1.77984786034,-1.31388497353,0.569419920444,,-0.00148674764205,0.0123329767957,0.695047497749,0.718856573105
1549647133900103352,,477680,,1549647133,899965905,"""world""",,,1.77983689308,-1.31388831139,0.569427192211,,-0.00154036434833,0.0121885407716,0.694998383522,0.718906342983
1549647133910303529,,477681,,1549647133,910150561,"""world""",,,1.77982902527,-1.31392610073,0.56941151619,,-0.00162692961749,0.0122275482863,0.69507598877,0.71883046627
1549647133920581053,,477682,,1549647133,920438498,"""world""",,,1.77980363369,-1.31390106678,0.56937366724,,-0.00177053152584,0.0122621301562,0.695121407509,0.718785703182
1549647133929800838,,477683,,1549647133,929655693,"""world""",,,1.7798178196,-1.31389033794,0.569387614727,,-0.00189671711996,0.0124337598681,0.694983661175,0.718915581703
1549647133940552110,,477684,,1549647133,940040157,"""world""",,,1.77983224392,-1.31388795376,0.569389104843,,-0.00171193538699,0.0122860865667,0.694927871227,0.718972444534
1549647133952151598,,477685,,1549647133,950505407,"""world""",,,1.77981889248,-1.31389641762,0.569397807121,,-0.00166640372481,0.0121980570257,0.69483846426,0.719060540199
1549647133952166510,,477686,,1549647133,950563842,"""world""",,,1.77980685234,-1.31393933296,0.56940972805,,-0.00153719785158,0.012127680704,0.695030987263,0.718875944614
1549647133960615060,,477687,,1549647133,960253634,"""world""",,,1.77982246876,-1.31395161152,0.569438695908,,-0.0014771099668,0.0121875479817,0.694868087769,0.719032466412
1549647133969976438,,477688,,1549647133,969598681,"""world""",,,1.77983105183,-1.31392717361,0.569451451302,,-0.00157269602641,0.0123786134645,0.694997251034,0.718904137611
1549647133980381988,,477689,,1549647133,979959122,"""world""",,,1.77980673313,-1.31392073631,0.569456219673,,-0.0016532917507,0.0122913327068,0.694971501827,0.718930363655
1549647133980420823,,477690,,1549647133,980009275,"""world""",,,1.77980065346,-1.31391108036,0.569438874722,,-0.00170978356618,0.0122850295156,0.695109128952,0.718797206879
1549647133990767238,,477691,,1549647133,990367757,"""world""",,,1.7797973156,-1.31389439106,0.56944257021,,-0.00169251428451,0.0124111436307,0.695038259029,0.718863666058
1549647134000196827,,477692,,1549647133,999794339,"""world""",,,1.77981817722,-1.31387686729,0.569435954094,,-0.00152262486517,0.012172116898,0.694958209991,0.718945503235
1549647134010920596,,477693,,1549647134,10193611,"""world""",,,1.77981436253,-1.31386256218,0.569434821606,,-0.00155543687288,0.0122022582218,0.695003211498,0.718901395798
1549647134020065333,,477694,,1549647134,19841569,"""world""",,,1.7798358202,-1.31386518478,0.569446623325,,-0.00156079733279,0.0121583715081,0.694963037968,0.718941032887
1549647134030292599,,477695,,1549647134,30139931,"""world""",,,1.77982544899,-1.31387746334,0.569436907768,,-0.00144235906191,0.0121290246025,0.695034444332,0.718872725964
1549647134030312814,,477696,,1549647134,30158628,"""world""",,,1.77982723713,-1.31385612488,0.569442331791,,-0.0014525630977,0.0122968815267,0.695134401321,0.718773126602
1549647134040576468,,477697,,1549647134,40452101,"""world""",,,1.7798371315,-1.31386077404,0.569454908371,,-0.00137186073698,0.0122121395543,0.695059120655,0.718847632408
1549647134049763698,,477698,,1549647134,49645753,"""world""",,,1.77983224392,-1.31387126446,0.56946516037,,-0.00145312747918,0.012297696434,0.695079028606,0.718826711178
1549647134060080230,,477699,,1549647134,59962927,"""world""",,,1.77983427048,-1.31387960911,0.569447755814,,-0.00152535457164,0.012311684899,0.695176184177,0.718732357025
1549647134070246070,,477700,,1549647134,70154360,"""world""",,,1.77981388569,-1.31388759613,0.56945592165,,-0.00150938762818,0.0121833123267,0.695278942585,0.71863514185
1549647134080499654,,477701,,1549647134,80368944,"""world""",,,1.7797601223,-1.31390118599,0.56945502758,,-0.00150503194891,0.0121962344274,0.695591747761,0.718332231045
1549647134080515254,,477702,,1549647134,80384588,"""world""",,,1.7797665596,-1.31389951706,0.569463074207,,-0.00154125038534,0.0121299857274,0.695555090904,0.718368768692
1549647134089669816,,477703,,1549647134,89517251,"""world""",,,1.77978503704,-1.31391906738,0.56947261095,,-0.00145383400377,0.0122772632167,0.695543110371,0.718378007412
1549647134099979340,,477704,,1549647134,99825540,"""world""",,,1.7797999382,-1.3139166832,0.569461882114,,-0.00162177195307,0.0123190591112,0.695319771767,0.718593120575
1549647134110185729,,477705,,1549647134,110066217,"""world""",,,1.77977132797,-1.3139320612,0.569434523582,,-0.00158278038725,0.0120725547895,0.695483803749,0.71843868494
1549647134121098338,,477706,,1549647134,120397425,"""world""",,,1.77977764606,-1.31391632557,0.56943500042,,-0.00154307484627,0.0121489930898,0.69539219141,0.71852606535
1549647134130413565,,477707,,1549647134,129962929,"""world""",,,1.77978789806,-1.31389796734,0.569447875023,,-0.00150758237578,0.0121275056154,0.695381462574,0.718536973
1549647134130471405,,477708,,1549647134,130026065,"""world""",,,1.77978134155,-1.31392073631,0.569450378418,,-0.00144821731374,0.0120966536924,0.695441007614,0.718479931355
1549647134140858021,,477709,,1549647134,140456729,"""world""",,,1.77977740765,-1.31389427185,0.569432973862,,-0.00162991136312,0.0120625114068,0.695252001286,0.718663036823
1549647134150261735,,477710,,1549647134,149876802,"""world""",,,1.77976775169,-1.31391191483,0.569465041161,,-0.001664569485,0.012171683833,0.695283770561,0.718630313873
1549647134160667732,,477711,,1549647134,160219635,"""world""",,,1.77978873253,-1.31391465664,0.569463133812,,-0.00160160276573,0.0121875489131,0.695242524147,0.718670189381
1549647134171096895,,477712,,1549647134,170610066,"""world""",,,1.77975964546,-1.31395375729,0.569483816624,,-0.00162674952298,0.0122553873807,0.695388317108,0.718527793884
1549647134181334378,,477713,,1549647134,180173186,"""world""",,,1.77975916862,-1.31395566463,0.569574892521,,-0.00210994435474,0.0128540443256,0.695476293564,0.718431055546
1549647134181357172,,477714,,1549647134,180208472,"""world""",,,1.779763937,-1.31389284134,0.569473266602,,-0.00158609263599,0.0122418142855,0.69538205862,0.718534171581
1549647134190673406,,477715,,1549647134,190497039,"""world""",,,1.77978134155,-1.31387042999,0.569445014,,-0.00163876882289,0.0122207989916,0.69504827261,0.71885740757
1549647134200027807,,477716,,1549647134,199845327,"""world""",,,1.77981221676,-1.31384289265,0.569438695908,,-0.00165346765425,0.0123534882441,0.694855213165,0.719041705132
1549647134210213950,,477717,,1549647134,210070961,"""world""",,,1.7797781229,-1.31388783455,0.569446563721,,-0.001541085192,0.0122038330883,0.695079088211,0.718828141689
1549647134220493473,,477718,,1549647134,220306117,"""world""",,,1.77976691723,-1.3138846159,0.56952303648,,-0.00225242110901,0.0126632256433,0.695213317871,0.718688488007
1549647134230685021,,477719,,1549647134,230524731,"""world""",,,1.77975726128,-1.31389868259,0.569534301758,,-0.00220502912998,0.0126579897478,0.695317685604,0.718587696552
1549647134230706192,,477720,,1549647134,230541372,"""world""",,,1.77978038788,-1.3139231205,0.569452464581,,-0.00171613413841,0.0122504727915,0.695159912109,0.718748688698
1549647134239983356,,477721,,1549647134,239808036,"""world""",,,1.77976286411,-1.3139462471,0.569523215294,,-0.00223621213809,0.012612413615,0.695397257805,0.718511402607
1549647134250417895,,477722,,1549647134,250204830,"""world""",,,1.77974951267,-1.31396448612,0.569542884827,,-0.00222362647764,0.0126277580857,0.695591449738,0.718323171139
1549647134261085713,,477723,,1549647134,260633588,"""world""",,,1.77975285053,-1.31391954422,0.569432139397,,-0.00176946399733,0.0121534084901,0.695497393608,0.71842366457
1549647134272212788,,477724,,1549647134,270013497,"""world""",,,1.77976572514,-1.31392252445,0.569447994232,,-0.00166785402689,0.0121241770685,0.695604085922,0.718321144581
1549647134280778997,,477725,,1549647134,280380251,"""world""",,,1.77975749969,-1.31395959854,0.569469332695,,-0.00155613804236,0.0119346436113,0.695586800575,0.718341350555
1549647134280833166,,477726,,1549647134,280428717,"""world""",,,1.77975845337,-1.31395292282,0.569446265697,,-0.00172327505425,0.0120667479932,0.695437610149,0.718483150005
1549647134290382811,,477727,,1549647134,289991091,"""world""",,,1.77976644039,-1.31393516064,0.569447875023,,-0.00180793588515,0.0120793422684,0.695254743099,0.718659698963
1549647134300842185,,477728,,1549647134,300444174,"""world""",,,1.77976477146,-1.31396532059,0.569544911385,,-0.00226621772163,0.0126092284918,0.695396304131,0.718512296677
1549647134310498513,,477729,,1549647134,310108970,"""world""",,,1.77976357937,-1.31397485733,0.569562494755,,-0.0023228446953,0.0127544030547,0.69550460577,0.718404710293
1549647134320022302,,477730,,1549647134,319614609,"""world""",,,1.77978289127,-1.31395995617,0.569565653801,,-0.00222519552335,0.0126950144768,0.695510208607,0.718400657177
1549647134330491035,,477731,,1549647134,330047245,"""world""",,,1.77979493141,-1.31393241882,0.569564163685,,-0.00221302476712,0.0127536077052,0.695301890373,0.718601286411
1549647134330524328,,477732,,1549647134,330102025,"""world""",,,1.77979505062,-1.31393432617,0.569553792477,,-0.00219221762381,0.0126228518784,0.69524538517,0.718658268452
1549647134340908154,,477733,,1549647134,340563941,"""world""",,,1.77978312969,-1.31398928165,0.569581866264,,-0.00209615752101,0.0126718236133,0.695405364037,0.718502938747
1549647134350333997,,477734,,1549647134,349952024,"""world""",,,1.77978694439,-1.31393706799,0.569549143314,,-0.00203046551906,0.012576485984,0.695317089558,0.718590199947
1549647134360893810,,477735,,1549647134,360513385,"""world""",,,1.77978920937,-1.31394696236,0.569467842579,,-0.00143396726344,0.0120935235173,0.695334076881,0.718583524227
1549647134370340136,,477736,,1549647134,370136310,"""world""",,,1.7797921896,-1.31395149231,0.56956666708,,-0.00213829893619,0.0127722630277,0.695310235023,0.71859306097
1549647134380936595,,477737,,1549647134,380459431,"""world""",,,1.77979290485,-1.3139320612,0.56954061985,,-0.00215557403862,0.0127405393869,0.695369005203,0.718536734581
1549647134380972550,,477738,,1549647134,380499758,"""world""",,,1.77979159355,-1.31392681599,0.569518983364,,-0.00212620850652,0.0126583892852,0.695349812508,0.718556880951
1549647134400793163,,477739,,1549647134,400348948,"""world""",,,1.77979326248,-1.31391310692,0.569455265999,,-0.00155066768639,0.0120628103614,0.69526052475,0.718654930592
1549647134400847224,,477740,,1549647134,400411802,"""world""",,,1.7798115015,-1.31391000748,0.56944334507,,-0.00141130306292,0.012010615319,0.695176005363,0.718737900257
1549647134410204084,,477741,,1549647134,409823679,"""world""",,,1.77980983257,-1.31392002106,0.569460809231,,-0.00142752018292,0.0121861463413,0.695214927197,0.718697249889
1549647134420744345,,477742,,1549647134,420410340,"""world""",,,1.77980136871,-1.31391203403,0.569438934326,,-0.0014247543877,0.012201147154,0.695237338543,0.71867531538
1549647134430243225,,477743,,1549647134,429890953,"""world""",,,1.77981340885,-1.31393015385,0.569436192513,,-0.00153533485718,0.0123150609434,0.695205569267,0.7187038064
1549647134430254714,,477744,,1549647134,429930328,"""world""",,,1.77980053425,-1.31392848492,0.569449782372,,-0.00150415604003,0.0121479071677,0.695168495178,0.718742668629
1549647134440569163,,477745,,1549647134,440313720,"""world""",,,1.77978384495,-1.31397712231,0.569519758224,,-0.00207769847475,0.012748000212,0.695412099361,0.718495130539
1549647134449759130,,477746,,1549647134,449547428,"""world""",,,1.77980673313,-1.31396150589,0.569502353668,,-0.00201918557286,0.0125878751278,0.695306181908,0.71860063076
1549647134460281660,,477747,,1549647134,459940495,"""world""",,,1.77979016304,-1.31395947933,0.5694206357,,-0.00152698648162,0.0119583755732,0.695193350315,0.718721807003
1549647134470808587,,477748,,1549647134,470394081,"""world""",,,1.77980279922,-1.31396901608,0.569425046444,,-0.00151054328308,0.0120868999511,0.695289194584,0.718626856804
1549647134480208842,,477749,,1549647134,479767284,"""world""",,,1.77980387211,-1.3139770031,0.569495081902,,-0.00215038284659,0.0125967869535,0.695290744305,0.71861499548
1549647134480262561,,477750,,1549647134,479821692,"""world""",,,1.77980601788,-1.31392526627,0.569404423237,,-0.00173679972067,0.0122479107231,0.695174753666,0.718734383583
1549647134490558553,,477751,,1549647134,490203985,"""world""",,,1.77979516983,-1.31393718719,0.569411575794,,-0.00173007987905,0.0123338764533,0.695209920406,0.718698859215
1549647134501072413,,477752,,1549647134,500614871,"""world""",,,1.77981066704,-1.3139166832,0.569502472878,,-0.00233352649957,0.0128584271297,0.695078909397,0.718814730644
1549647134510149949,,477753,,1549647134,509935862,"""world""",,,1.77978801727,-1.31399178505,0.569435834885,,-0.00164551986381,0.0121921952814,0.695250630379,0.718662083149
1549647134520429731,,477754,,1549647134,520266831,"""world""",,,1.77980577946,-1.31396305561,0.569408178329,,-0.00154069112614,0.0122097637504,0.695309460163,0.718605160713
1549647134530768844,,477755,,1549647134,530553168,"""world""",,,1.77979373932,-1.31396496296,0.569434046745,,-0.0016191174509,0.0121936323121,0.695244908333,0.71866774559
1549647134530791013,,477756,,1549647134,530582968,"""world""",,,1.77981901169,-1.31391525269,0.569416224957,,-0.0015708260471,0.0121928295121,0.695151269436,0.718758404255
1549647134540080772,,477757,,1549647134,539880741,"""world""",,,1.77981495857,-1.31393587589,0.569413363934,,-0.00157138088252,0.012122772634,0.695171117783,0.718740403652
1549647134550374218,,477758,,1549647134,550169692,"""world""",,,1.77981257439,-1.31390988827,0.569408714771,,-0.00154577568173,0.0121556129307,0.695095896721,0.718812584877
1549647134560550066,,477759,,1549647134,560394608,"""world""",,,1.77981197834,-1.31389987469,0.569416999817,,-0.00159674545284,0.0122079122812,0.695111453533,0.718796551228
1549647134569758219,,477760,,1549647134,569574646,"""world""",,,1.7798140049,-1.31390595436,0.569407224655,,-0.00159760133829,0.0120999701321,0.695136785507,0.718773901463
1549647134579982315,,477761,,1549647134,579809783,"""world""",,,1.77980983257,-1.31390500069,0.569493293762,,-0.00226519047283,0.0127135040238,0.695342898369,0.718562185764
1549647134580005964,,477762,,1549647134,579831053,"""world""",,,1.77982807159,-1.31390047073,0.569418907166,,-0.00161370087881,0.0121814571321,0.695142745972,0.718766748905
1549647134590330254,,477763,,1549647134,590099214,"""world""",,,1.77981436253,-1.3138859272,0.569417893887,,-0.00160342524759,0.0122256521136,0.695117354393,0.718790650368
1549647134600532182,,477764,,1549647134,600368714,"""world""",,,1.77983212471,-1.3138794899,0.569420874119,,-0.00161849008873,0.012196386233,0.695042431355,0.718863427639
1549647134609748569,,477765,,1549647134,609567529,"""world""",,,1.77981758118,-1.31387019157,0.569423675537,,-0.00169334514067,0.0122668119147,0.695065438747,0.718839943409
1549647134620029485,,477766,,1549647134,619804762,"""world""",,,1.77983736992,-1.31387126446,0.56942987442,,-0.00160292629153,0.0122391069308,0.694984912872,0.718918383121
1549647134630249501,,477767,,1549647134,630060408,"""world""",,,1.77983176708,-1.31385588646,0.569426238537,,-0.00162597128656,0.012218455784,0.694955408573,0.71894723177
1549647134640528059,,477768,,1549647134,640301971,"""world""",,,1.77983152866,-1.31388962269,0.569414377213,,-0.00163069856353,0.012000340037,0.694969773293,0.718937039375
1549647134640552792,,477769,,1549647134,640330273,"""world""",,,1.77982723713,-1.31386649609,0.569419622421,,-0.00159873650409,0.0122325550765,0.695065617561,0.718840479851
1549647134650737535,,477770,,1549647134,650585020,"""world""",,,1.7798166275,-1.31389892101,0.569420337677,,-0.00153455592226,0.012031535618,0.695194423199,0.718719482422
1549647134660114510,,477771,,1549647134,659896922,"""world""",,,1.7798153162,-1.31387925148,0.569486856461,,-0.00229434808716,0.0126134390011,0.695196092129,0.718705832958
1549647134670329447,,477772,,1549647134,670153532,"""world""",,,1.7798306942,-1.31389677525,0.569501578808,,-0.00216842629015,0.012606033124,0.69514220953,0.718758523464
1549647134680676547,,477773,,1549647134,680407383,"""world""",,,1.77982199192,-1.31388759613,0.569522559643,,-0.00220977584831,0.0127685125917,0.695131957531,0.718765377998
1549647134680699242,,477774,,1549647134,680427306,"""world""",,,1.77981948853,-1.31390309334,0.569511711597,,-0.00215046619996,0.0125512443483,0.695060670376,0.718838393688
1549647134689854523,,477775,,1549647134,689695890,"""world""",,,1.77981770039,-1.31392168999,0.569426774979,,-0.00154777849093,0.0120145510882,0.695014834404,0.718893349171
1549647134700171064,,477776,,1549647134,699976494,"""world""",,,1.77981507778,-1.31387841702,0.569500088692,,-0.00225559086539,0.0127312792465,0.695037007332,0.718857705593
1549647134710338875,,477777,,1549647134,710190391,"""world""",,,1.77981507778,-1.31386768818,0.569486021996,,-0.00233815354295,0.0127353938296,0.695201218128,0.718698680401
1549647134720717788,,477778,,1549647134,720496516,"""world""",,,1.77981579304,-1.31389534473,0.569435298443,,-0.00153562251944,0.0121825449169,0.69514554739,0.718764126301
1549647134730059236,,477779,,1549647134,729820380,"""world""",,,1.77980542183,-1.31392240524,0.569506824017,,-0.00207564118318,0.0126314461231,0.695247292519,0.718656718731
1549647134740269181,,477780,,1549647134,740086634,"""world""",,,1.77980268002,-1.31389713287,0.569513499737,,-0.00215145130642,0.0128228273243,0.695188999176,0.718709468842
1549647134740295036,,477781,,1549647134,740112456,"""world""",,,1.77981805801,-1.31390571594,0.569511950016,,-0.00220961333252,0.0127058150247,0.695129334927,0.718769013882
1549647134750607485,,477782,,1549647134,750444366,"""world""",,,1.77982437611,-1.31389510632,0.569499194622,,-0.00229130941443,0.0127577390522,0.694993197918,0.718899488449
1549647134759907642,,477783,,1549647134,759734553,"""world""",,,1.77982258797,-1.31393313408,0.569410562515,,-0.00162193190772,0.0121493646875,0.695124268532,0.718785107136
1549647134770195166,,477784,,1549647134,770040167,"""world""",,,1.77979707718,-1.31392323971,0.569412648678,,-0.00167170050554,0.0122005585581,0.695248007774,0.718664467335
1549647134780565481,,477785,,1549647134,780365342,"""world""",,,1.77978920937,-1.31390106678,0.569396853447,,-0.00170731521212,0.0122124841437,0.69519418478,0.718716263771
1549647134780583057,,477786,,1549647134,780388189,"""world""",,,1.77977156639,-1.31394422054,0.569394290447,,-0.00165322073735,0.012022184208,0.695399820805,0.718520522118
1549647134800047864,,477787,,1549647134,799834702,"""world""",,,1.77980279922,-1.31392323971,0.569393694401,,-0.00166842504404,0.0120617114007,0.695249140263,0.718665719032
1549647134800067411,,477788,,1549647134,799858864,"""world""",,,1.77980518341,-1.31390762329,0.569384217262,,-0.00165769271553,0.0120216608047,0.695082306862,0.718827784061
1549647134810385086,,477789,,1549647134,810183684,"""world""",,,1.77978813648,-1.3138897419,0.569380402565,,-0.00164984504227,0.0119355292991,0.695055186749,0.718855500221
1549647134820611628,,477790,,1549647134,820458808,"""world""",,,1.77980470657,-1.31388354301,0.569365680218,,-0.00161191320512,0.0119378538802,0.695087254047,0.718824446201
1549647134829937631,,477791,,1549647134,829710728,"""world""",,,1.77980136871,-1.31388807297,0.569383382797,,-0.00148680759594,0.0119524681941,0.695070803165,0.718840420246
1549647134829961956,,477792,,1549647134,829730843,"""world""",,,1.77979135513,-1.31389462948,0.569384276867,,-0.00147135800216,0.0120086707175,0.695135116577,0.718777298927
1549647134840174137,,477793,,1549647134,840009977,"""world""",,,1.77977693081,-1.31393039227,0.569378435612,,-0.00137323490344,0.012054476887,0.695408403873,0.718512356281
1549647134850404312,,477794,,1549647134,850232994,"""world""",,,1.77976334095,-1.3139320612,0.569381713867,,-0.00135178794153,0.0120563423261,0.695479393005,0.71844369173
1549647134860761203,,477795,,1549647134,860553937,"""world""",,,1.7797883749,-1.31391096115,0.569374442101,,-0.00143488147296,0.0122757516801,0.695431172848,0.718486428261
1549647134869959892,,477796,,1549647134,869784216,"""world""",,,1.7797935009,-1.31389737129,0.569382548332,,-0.0014898062218,0.0123839452863,0.695357739925,0.718555569649
1549647134880281119,,477797,,1549647134,880079543,"""world""",,,1.77978670597,-1.31390190125,0.569390535355,,-0.00149096979294,0.0122447190806,0.695322334766,0.718592226505
1549647134880303545,,477798,,1549647134,880103961,"""world""",,,1.7797961235,-1.31388688087,0.56939715147,,-0.00144129211549,0.0121225053445,0.695225298405,0.718688309193
1549647134890483884,,477799,,1549647134,890320077,"""world""",,,1.7797960043,-1.31389439106,0.569414615631,,-0.00136579305399,0.0120297633111,0.695295631886,0.718621850014
1549647134899699278,,477800,,1549647134,899525384,"""world""",,,1.7797948122,-1.31391227245,0.569406211376,,-0.00146463536657,0.0121664796025,0.69531750679,0.71859818697
1549647134909916691,,477801,,1549647134,909757929,"""world""",,,1.7797806263,-1.3139436245,0.569407999516,,-0.00159723591059,0.0122693032026,0.695533275604,0.718387365341
1549647134920191062,,477802,,1549647134,920025732,"""world""",,,1.7797703743,-1.31399857998,0.569401621819,,-0.00154278089758,0.0121833030134,0.695399284363,0.718518674374
1549647134930567074,,477803,,1549647134,930373411,"""world""",,,1.77954554558,-1.31446099281,0.569460332394,,-0.00101455661934,0.011736609973,0.696929991245,0.717042446136
1549647134930589943,,477804,,1549647134,930399109,"""world""",,,1.77950918674,-1.31470727921,0.569415211678,,-0.000745678320527,0.0114049520344,0.696663498878,0.717307031155
1549647134939788986,,477805,,1549647134,939599609,"""world""",,,1.77942860126,-1.31485164165,0.569391071796,,-0.000649873632938,0.0112374033779,0.696523725986,0.717445552349
1549647134950162692,,477806,,1549647134,949971987,"""world""",,,1.77940666676,-1.31468605995,0.569409668446,,-0.000569493451621,0.0111958375201,0.696656703949,0.717317163944
1549647134960395084,,477807,,1549647134,960233735,"""world""",,,1.77955543995,-1.31397664547,0.569342136383,,-0.00107574940193,0.0113318199292,0.695357739925,0.718573629856
1549647134970623485,,477808,,1549647134,970470922,"""world""",,,1.77968597412,-1.31325209141,0.56936109066,,-0.00136306066997,0.0117830978706,0.695266902447,0.718653857708
1549647134979881178,,477809,,1549647134,979701002,"""world""",,,1.77971112728,-1.3125795126,0.569400250912,,-0.00184999743942,0.0121299186721,0.695464789867,0.71845549345
1549647134979915299,,477810,,1549647134,979723401,"""world""",,,1.77980339527,-1.31198883057,0.569464087486,,-0.00213686143979,0.0126985013485,0.69545763731,0.718451797962
1549647134990231299,,477811,,1549647134,990025212,"""world""",,,1.77985918522,-1.31165277958,0.569524407387,,-0.00209461827762,0.0128939319402,0.695572972298,0.718336701393
1549647135000449077,,477812,,1549647135,282805,"""world""",,,1.77990663052,-1.31147968769,0.569544553757,,-0.00193068978842,0.0127732530236,0.695814490318,0.718105435371
1549647135010683373,,477813,,1549647135,10537719,"""world""",,,1.77997207642,-1.31138646603,0.569528996944,,-0.00168411375489,0.0125413807109,0.695854604244,0.71807128191
1549647135020103160,,477814,,1549647135,19909136,"""world""",,,1.77997326851,-1.31134724617,0.569477319717,,-0.00161997659598,0.0120987771079,0.695953071117,0.717983603477
1549647135030346374,,477815,,1549647135,30157783,"""world""",,,1.7799744606,-1.31129300594,0.56947684288,,-0.00133667583577,0.012070665136,0.695673465729,0.718255519867
1549647135030364733,,477816,,1549647135,30177918,"""world""",,,1.77996349335,-1.31120467186,0.56947940588,,-0.00124812556896,0.0120717734098,0.695679306984,0.71825003624
1549647135040672623,,477817,,1549647135,40474524,"""world""",,,1.77997875214,-1.31110155582,0.569485008717,,-0.00115411134902,0.0121130309999,0.695639014244,0.718288481236
1549647135049920234,,477818,,1549647135,49708599,"""world""",,,1.77996981144,-1.31089675426,0.569462716579,,-0.00107583135832,0.0121103283018,0.695728778839,0.718201696873
1549647135060208813,,477819,,1549647135,60026169,"""world""",,,1.7799628973,-1.31058084965,0.569502353668,,-0.00109904434066,0.0123038012534,0.695802032948,0.718127369881
1549647135070458067,,477820,,1549647135,70261932,"""world""",,,1.77987635136,-1.31018149853,0.569484174252,,-0.00143772386946,0.0121832666919,0.695946276188,0.717989087105
1549647135080754374,,477821,,1549647135,80534216,"""world""",,,1.77983629704,-1.30977869034,0.569498538971,,-0.0016900281189,0.0122906817123,0.695879876614,0.718051075935
1549647135080780867,,477822,,1549647135,80554976,"""world""",,,1.7798551321,-1.30932641029,0.569508135319,,-0.00188990391325,0.0125808510929,0.69557505846,0.718340754509
1549647135090046235,,477823,,1549647135,89843860,"""world""",,,1.77982997894,-1.3090467453,0.569517195225,,-0.00205233716406,0.012689942494,0.695605397224,0.718309104443
1549647135100363303,,477824,,1549647135,100192597,"""world""",,,1.77978348732,-1.30884289742,0.569515228271,,-0.00229685520753,0.0125238308683,0.695541381836,0.71837323904
1549647135110645849,,477825,,1549647135,110442728,"""world""",,,1.77975749969,-1.30877423286,0.569512248039,,-0.00220946222544,0.0123638724908,0.695411801338,0.718501746655
1549647135119876972,,477826,,1549647135,119717351,"""world""",,,1.77970421314,-1.30879104137,0.569507002831,,-0.00201413081959,0.0120929032564,0.695437788963,0.718481779099
1549647135130516433,,477827,,1549647135,130142716,"""world""",,,1.77975142002,-1.30879211426,0.569488465786,,-0.00166651548352,0.0121435644105,0.695066213608,0.718841195107
1549647135130581495,,477828,,1549647135,130193018,"""world""",,,1.77974820137,-1.30880665779,0.569442272186,,-0.00159533589613,0.0116805611178,0.695202827454,0.718716979027
1549647135141006652,,477829,,1549647135,140604824,"""world""",,,1.77980077267,-1.30873632431,0.569438695908,,-0.00148232898209,0.0115677984431,0.695188343525,0.718733072281
1549647135150427489,,477830,,1549647135,150025230,"""world""",,,1.77990031242,-1.30862045288,0.569477498531,,-0.00144381681457,0.0120192281902,0.695764601231,0.718167901039
1549647135160824888,,477831,,1549647135,160442744,"""world""",,,1.77999544144,-1.30836474895,0.569483280182,,-0.00146519998088,0.0121919987723,0.695886254311,0.71804702282
1549647135170339019,,477832,,1549647135,169937084,"""world""",,,1.78012633324,-1.30803585052,0.569456756115,,-0.00155804655515,0.0122576467693,0.695544302464,0.718377053738
1549647135180482158,,477833,,1549647135,180253799,"""world""",,,1.7802273035,-1.30762791634,0.569474935532,,-0.00153041584417,0.012070258148,0.695541679859,0.718382775784
1549647135180504982,,477834,,1549647135,180274368,"""world""",,,1.78030657768,-1.30727303028,0.569473147392,,-0.00162177276798,0.0120303854346,0.695517361164,0.71840685606
1549647135190773955,,477835,,1549647135,190570484,"""world""",,,1.78035008907,-1.3070179224,0.569521069527,,-0.00154256704263,0.0119184507057,0.695834100246,0.718102097511
1549647135200104815,,477836,,1549647135,199911425,"""world""",,,1.78047072887,-1.30671799183,0.569520831108,,-0.00169725087471,0.0118445567787,0.695468485355,0.718457043171
1549647135210399184,,477837,,1549647135,210247033,"""world""",,,1.7805429697,-1.30652284622,0.569543242455,,-0.0016628538724,0.0118401385844,0.695449888706,0.718475162983
1549647135220672493,,477838,,1549647135,220501852,"""world""",,,1.78058433533,-1.30647265911,0.569512665272,,-0.00147390877828,0.0116155073047,0.695680499077,0.718255937099
1549647135229993012,,477839,,1549647135,229811042,"""world""",,,1.7806084156,-1.30639147758,0.569486021996,,-0.00150983023923,0.0115411952138,0.695635735989,0.718300402164
1549647135240315541,,477840,,1549647135,240120234,"""world""",,,1.78059709072,-1.30637264252,0.569485723972,,-0.00135289761238,0.011232801713,0.695537567139,0.718400716782
1549647135240342993,,477841,,1549647135,240147312,"""world""",,,1.78057253361,-1.3063672781,0.569464623928,,-0.00127649586648,0.0110253505409,0.695712685585,0.718234419823
1549647135250589052,,477842,,1549647135,250371201,"""world""",,,1.78058314323,-1.30626654625,0.569447875023,,-0.00126770196948,0.0111001124606,0.695603847504,0.718338668346
1549647135259746081,,477843,,1549647135,259569924,"""world""",,,1.78057265282,-1.30614733696,0.569452643394,,-0.00120217446238,0.0110156089067,0.695832073689,0.71811902523
1549647135269957020,,477844,,1549647135,269823829,"""world""",,,1.78059351444,-1.3059271574,0.569432854652,,-0.00122935278341,0.0111569631845,0.695747435093,0.71819883585
1549647135280328298,,477845,,1549647135,280091617,"""world""",,,1.78055560589,-1.30564665794,0.569426059723,,-0.00141987600364,0.0113737452775,0.696123898029,0.717830181122
1549647135280353594,,477846,,1549647135,280116959,"""world""",,,1.78054189682,-1.30530321598,0.569424748421,,-0.00148090242874,0.0114509426057,0.696415245533,0.717546105385
1549647135290600911,,477847,,1549647135,290397842,"""world""",,,1.78058505058,-1.30490863323,0.569452941418,,-0.00176047731657,0.0117686893791,0.696437478065,0.717518806458
1549647135299895624,,477848,,1549647135,299732397,"""world""",,,1.78063011169,-1.30451250076,0.569579660892,,-0.00217474764213,0.0125091699883,0.696368455887,0.717572152615
1549647135310542211,,477849,,1549647135,310341155,"""world""",,,1.78068888187,-1.30405843258,0.569596230984,,-0.00236959196627,0.0126780001447,0.696125566959,0.717804253101
1549647135319741665,,477850,,1549647135,319549097,"""world""",,,1.78076100349,-1.30368340015,0.569635927677,,-0.00210217828862,0.012961355038,0.696051836014,0.717871546745
1549647135330271540,,477851,,1549647135,329908010,"""world""",,,1.78088128567,-1.30338704586,0.569661021233,,-0.00178179203067,0.0131741752848,0.695996820927,0.717921793461
1549647135340658939,,477852,,1549647135,340239417,"""world""",,,1.78098666668,-1.30323159695,0.569701492786,,-0.00150434370153,0.0135000646114,0.696548461914,0.717381238937
1549647135351048181,,477853,,1549647135,350601371,"""world""",,,1.7810049057,-1.30302369595,0.569717049599,,-0.00144492695108,0.0135350031778,0.696533083916,0.717395663261
1549647135351085121,,477854,,1549647135,350652959,"""world""",,,1.78098940849,-1.30283534527,0.569722175598,,-0.0014386131661,0.0134732574224,0.696464538574,0.717463374138
1549647135360470431,,477855,,1549647135,360122115,"""world""",,,1.78095495701,-1.30265545845,0.569728791714,,-0.00146845681593,0.0135785657912,0.696326613426,0.717595160007
1549647135371015562,,477856,,1549647135,370546805,"""world""",,,1.78084170818,-1.30247819424,0.569624662399,,-0.00168373796623,0.0132297528908,0.695713400841,0.718195736408
1549647135380448728,,477857,,1549647135,380017897,"""world""",,,1.78076589108,-1.30264592171,0.569528639317,,-0.00122288102284,0.0124993184581,0.695609867573,0.718309938908
1549647135380494519,,477858,,1549647135,380067299,"""world""",,,1.78068912029,-1.30273628235,0.56936866045,,-0.00015941800666,0.0108995037153,0.695452868938,0.718489050865
1549647135390925378,,477859,,1549647135,390504655,"""world""",,,1.78071689606,-1.30250740051,0.569374382496,,0.000330106617184,0.0106268599629,0.69539552927,0.718548595905
1549647135400356064,,477860,,1549647135,400110674,"""world""",,,1.78075516224,-1.301866889,0.569421350956,,0.000248685246333,0.0108106192201,0.695478141308,0.718465983868
1549647135410656765,,477861,,1549647135,410414669,"""world""",,,1.78083443642,-1.30092990398,0.569452881813,,-0.000382149155485,0.0110604213551,0.69532251358,0.718612670898
1549647135419963833,,477862,,1549647135,419688813,"""world""",,,1.78104138374,-1.29967498779,0.569565653801,,-0.000813803344499,0.0122195323929,0.69571685791,0.718211770058
1549647135430213962,,477863,,1549647135,429972514,"""world""",,,1.7811909914,-1.29832351208,0.569560408592,,-0.00128063547891,0.0124566303566,0.695325016975,0.718586325645
1549647135430240558,,477864,,1549647135,429998858,"""world""",,,1.78126072884,-1.29727423191,0.569580793381,,-0.00187683582772,0.0127252768725,0.695457279682,0.718452394009
1549647135440502853,,477865,,1549647135,440242260,"""world""",,,1.78130221367,-1.29636800289,0.569590806961,,-0.00202958472073,0.0125879785046,0.695625185966,0.718291819096
1549647135450769998,,477866,,1549647135,450560625,"""world""",,,1.78146004677,-1.2955545187,0.569674491882,,-0.00200400338508,0.0132709164172,0.695527493954,0.71837413311
1549647135460116063,,477867,,1549647135,459912026,"""world""",,,1.78157818317,-1.29495275021,0.569685161114,,-0.00176806363743,0.0133000575006,0.695676088333,0.718230366707
1549647135470420820,,477868,,1549647135,470193861,"""world""",,,1.78165137768,-1.29445397854,0.56965059042,,-0.00170314509887,0.0130596514791,0.695798277855,0.718116462231
1549647135480736389,,477869,,1549647135,480500415,"""world""",,,1.78177666664,-1.29410636425,0.569644331932,,-0.00146786763798,0.012880070135,0.69606667757,0.717860162258
1549647135480761081,,477870,,1549647135,480529053,"""world""",,,1.7817915678,-1.29375290871,0.569603323936,,-0.00125915685203,0.0123625630513,0.695875763893,0.718054711819
1549647135490123313,,477871,,1549647135,489869760,"""world""",,,1.78188800812,-1.29332828522,0.569665849209,,-0.00104924698826,0.0125842839479,0.696305453777,0.717634499073
1549647135500472920,,477872,,1549647135,500227421,"""world""",,,1.78194773197,-1.29280269146,0.56964635849,,-0.0010613121558,0.0123664597049,0.696428239346,0.717519104481
1549647135510750619,,477873,,1549647135,510513611,"""world""",,,1.78197288513,-1.29211425781,0.569618821144,,-0.00116221839562,0.0119530605152,0.696312069893,0.717638731003
1549647135520063989,,477874,,1549647135,519809190,"""world""",,,1.78185606003,-1.29135787487,0.569622576237,,-0.00153473205864,0.0117934076115,0.696996927261,0.71697551012
1549647135530377330,,477875,,1549647135,530115097,"""world""",,,1.78191971779,-1.29028141499,0.569566369057,,-0.00203521619551,0.011863081716,0.695324242115,0.718595385551
1549647135530407496,,477876,,1549647135,530155101,"""world""",,,1.7818403244,-1.28939628601,0.569573640823,,-0.00218827603385,0.0118186650798,0.694530546665,0.719362854958
1549647135540804533,,477877,,1549647135,540576311,"""world""",,,1.781727314,-1.28857111931,0.569647014141,,-0.00235199416056,0.0119287287816,0.694355249405,0.719529688358
1549647135550167433,,477878,,1549647135,549894492,"""world""",,,1.78154861927,-1.28791809082,0.569746434689,,-0.00229290639982,0.0123666934669,0.695668041706,0.718253314495
1549647135560367568,,477879,,1549647135,560109584,"""world""",,,1.78145945072,-1.2871979475,0.569733262062,,-0.00231472030282,0.0126228984445,0.695561289787,0.718352138996
1549647135570679246,,477880,,1549647135,570439204,"""world""",,,1.78139042854,-1.28675997257,0.569780230522,,-0.00293883378617,0.0128411268815,0.69581580162,0.718099534512
1549647135580022158,,477881,,1549647135,579780671,"""world""",,,1.78136980534,-1.28643858433,0.569769203663,,-0.0029562539421,0.0126755405217,0.69582593441,0.718092560768
1549647135590328451,,477882,,1549647135,590042612,"""world""",,,1.78139662743,-1.28616607189,0.569664955139,,-0.00222113798372,0.0121905105188,0.695574104786,0.718347489834
1549647135590352626,,477883,,1549647135,590067614,"""world""",,,1.7814964056,-1.2859172821,0.569621562958,,-0.0020061340183,0.0120545467362,0.695598602295,0.718326687813
1549647135600621553,,477884,,1549647135,600342537,"""world""",,,1.78166520596,-1.28559017181,0.5695977211,,-0.00173126882873,0.0120856948197,0.695607483387,0.718318402767
1549647135609851542,,477885,,1549647135,609578058,"""world""",,,1.78188729286,-1.28514206409,0.569621562958,,-0.00125165842474,0.012064024806,0.695684075356,0.718245506287
1549647135620112189,,477886,,1549647135,619864601,"""world""",,,1.78216934204,-1.28453731537,0.569664120674,,-0.000822031171992,0.0122362179682,0.69568759203,0.718239843845
1549647135630494990,,477887,,1549647135,630221472,"""world""",,,1.78238892555,-1.28378272057,0.569688618183,,-0.000938983925153,0.0122972084209,0.695573627949,0.71834897995
1549647135630531475,,477888,,1549647135,630249293,"""world""",,,1.78260624409,-1.28285491467,0.56964635849,,-0.00137714878656,0.0120198000222,0.695501744747,0.718422532082
1549647135640757064,,477889,,1549647135,640504198,"""world""",,,1.7827757597,-1.28189110756,0.569694638252,,-0.00156791578047,0.0123233394697,0.6950045228,0.718898057938
1549647135650478170,,477890,,1549647135,649793161,"""world""",,,1.7828758955,-1.28108394146,0.569717884064,,-0.00186212232802,0.0126090701669,0.695049881935,0.718848526478
1549647135660325940,,477891,,1549647135,660077760,"""world""",,,1.78294146061,-1.28034698963,0.569776415825,,-0.00200079893693,0.0131923174486,0.695301115513,0.7185947299
1549647135670580645,,477892,,1549647135,670379554,"""world""",,,1.78287637234,-1.27966022491,0.569816172123,,-0.00194340443704,0.0128879295662,0.69540065527,0.71850413084
1549647135679821522,,477893,,1549647135,679577817,"""world""",,,1.78283429146,-1.27906560898,0.569854855537,,-0.00189995323308,0.0128461290151,0.695694088936,0.718220829964
1549647135690046977,,477894,,1549647135,689846552,"""world""",,,1.78275454044,-1.27868235111,0.569865226746,,-0.0019249166362,0.0127354683354,0.695684909821,0.718231618404
1549647135700498851,,477895,,1549647135,700235602,"""world""",,,1.78266978264,-1.27836441994,0.569822490215,,-0.00182561855763,0.012261277996,0.695448219776,0.718469321728
1549647135700531471,,477896,,1549647135,700270647,"""world""",,,1.7826448679,-1.27808487415,0.569785356522,,-0.00171146192588,0.0119441021234,0.695545375347,0.71838092804
1549647135710761879,,477897,,1549647135,710530382,"""world""",,,1.78264045715,-1.27788054943,0.569730818272,,-0.00152276270092,0.0117149306461,0.69539308548,0.718532443047
1549647135720204501,,477898,,1549647135,719991453,"""world""",,,1.78264307976,-1.27762079239,0.569752216339,,-0.00204604188912,0.0118033988401,0.695699810982,0.718232810497
1549647135730769136,,477899,,1549647135,730464769,"""world""",,,1.78260135651,-1.27720332146,0.569667160511,,-0.00138308177702,0.010694751516,0.695594966412,0.718353271484
1549647135730804124,,477900,,1549647135,730502186,"""world""",,,1.78264987469,-1.27661311626,0.569659292698,,-0.00141083088238,0.010680754669,0.695697188377,0.718254446983
1549647135750487247,,477901,,1549647135,750193116,"""world""",,,1.78282678127,-1.275785923,0.569674313068,,-0.00160030776169,0.0115350745618,0.695993840694,0.717953383923
1549647135750570953,,477902,,1549647135,750219124,"""world""",,,1.78298580647,-1.27474212646,0.569663286209,,-0.00172399147414,0.0116202067584,0.695603847504,0.718329548836
1549647135760850836,,477903,,1549647135,760623343,"""world""",,,1.7830671072,-1.27366125584,0.569650411606,,-0.00223327567801,0.0118503766134,0.695101797581,0.718810260296
1549647135770248870,,477904,,1549647135,769987301,"""world""",,,1.78304469585,-1.27273738384,0.56971091032,,-0.00250521861017,0.012086328119,0.695360183716,0.718555390835
1549647135780585368,,477905,,1549647135,780254558,"""world""",,,1.78299355507,-1.27194082737,0.569743812084,,-0.00282041914761,0.0122399264947,0.695502340794,0.718414068222
1549647135780615152,,477906,,1549647135,780287739,"""world""",,,1.78294658661,-1.27112078667,0.569774568081,,-0.00278156111017,0.0125597473234,0.695080697536,0.718816637993
1549647135790804576,,477907,,1549647135,790551491,"""world""",,,1.78299105167,-1.27040266991,0.569817900658,,-0.002774505876,0.0130631914362,0.694754958153,0.71912252903
1549647135800091155,,477908,,1549647135,799828567,"""world""",,,1.78298199177,-1.26984906197,0.569869995117,,-0.00271504675038,0.0131008885801,0.694773674011,0.719103991985
1549647135810430166,,477909,,1549647135,810180692,"""world""",,,1.78295230865,-1.2695338726,0.569890499115,,-0.00249718432315,0.0127227064222,0.694899260998,0.718990266323
1549647135820729024,,477910,,1549647135,820499351,"""world""",,,1.78294897079,-1.26920771599,0.569886922836,,-0.00231765094213,0.0124272303656,0.695009052753,0.718889892101
1549647135830041941,,477911,,1549647135,829794557,"""world""",,,1.78297793865,-1.26881337166,0.569831252098,,-0.00226094503887,0.0122724762186,0.695254147053,0.718655645847
1549647135840387696,,477912,,1549647135,840128394,"""world""",,,1.78304576874,-1.26837599277,0.569778382778,,-0.00216484023258,0.0120988450944,0.695145308971,0.71876424551
1549647135840422444,,477913,,1549647135,840161314,"""world""",,,1.78320658207,-1.26786053181,0.569768309593,,-0.00218465435319,0.0119578316808,0.695204973221,0.718708872795
1549647135850717820,,477914,,1549647135,850473872,"""world""",,,1.78353202343,-1.26728093624,0.569854080677,,-0.00185917690396,0.012524981983,0.695688784122,0.718231678009
1549647135859958800,,477915,,1549647135,859758177,"""world""",,,1.78374683857,-1.26660275459,0.569852590561,,-0.00192990084179,0.0121647380292,0.69553399086,0.71838760376
1549647135870291300,,477916,,1549647135,870072480,"""world""",,,1.78391623497,-1.26583123207,0.569858431816,,-0.00222054379992,0.0123746860772,0.695335924625,0.718574941158
1549647135880611197,,477917,,1549647135,880377454,"""world""",,,1.78408420086,-1.26508235931,0.569841206074,,-0.00248506921344,0.0126109486446,0.695217967033,0.718684136868
1549647135880634691,,477918,,1549647135,880409529,"""world""",,,1.78422152996,-1.26435160637,0.569795429707,,-0.00262687564828,0.0126804932952,0.695270478725,0.718631625175
1549647135889913154,,477919,,1549647135,889668507,"""world""",,,1.78438830376,-1.26362466812,0.569885015488,,-0.00213619880378,0.0130260810256,0.694868028164,0.719016194344
1549647135900249104,,477920,,1549647135,900009883,"""world""",,,1.78451275826,-1.26317763329,0.569972753525,,-0.00147619610652,0.0134134534746,0.695557177067,0.718344032764
1549647135910559714,,477921,,1549647135,910324055,"""world""",,,1.7843631506,-1.26252222061,0.569882631302,,-0.00195055070799,0.0128624821082,0.695126414299,0.718769788742
1549647135919796959,,477922,,1549647135,919581141,"""world""",,,1.78432452679,-1.26202487946,0.569846630096,,-0.00212884554639,0.012523486279,0.695424318314,0.718487024307
1549647135930133114,,477923,,1549647135,929876724,"""world""",,,1.78421223164,-1.26153457165,0.569813966751,,-0.00234886654653,0.0122199952602,0.695938706398,0.717993438244
1549647135930164948,,477924,,1549647135,929908971,"""world""",,,1.78417980671,-1.26102507114,0.569805204868,,-0.0024027233012,0.0122026223689,0.696147561073,0.717791080475
1549647135941521860,,477925,,1549647135,940170161,"""world""",,,1.78415477276,-1.26044416428,0.569815337658,,-0.00239912373945,0.0122636603191,0.696250677109,0.717689931393
1549647135950817717,,477926,,1549647135,950602308,"""world""",,,1.78416848183,-1.25970256329,0.569855332375,,-0.00304756104015,0.0128606501967,0.695869743824,0.718046426773
1549647135960248007,,477927,,1549647135,959950587,"""world""",,,1.78412377834,-1.25909519196,0.569904208183,,-0.00294843572192,0.0124379415065,0.696400523186,0.717539548874
1549647135970620890,,477928,,1549647135,970338794,"""world""",,,1.78421473503,-1.25837612152,0.56983602047,,-0.0025216396898,0.0119851371273,0.696332454681,0.71761494875
1549647135979837813,,477929,,1549647135,979531074,"""world""",,,1.78443145752,-1.25756251812,0.569803595543,,-0.00262820604257,0.0119088264182,0.695114970207,0.718795180321
1549647135990116133,,477930,,1549647135,989820664,"""world""",,,1.78458726406,-1.25697743893,0.569798648357,,-0.00242606853135,0.0120020583272,0.694935917854,0.718967497349
1549647135990147297,,477931,,1549647135,989856273,"""world""",,,1.78473854065,-1.25665783882,0.569802343845,,-0.00200009415857,0.0119421798736,0.694731831551,0.719167053699
1549647136000692538,,477932,,1549647136,272613,"""world""",,,1.78482341766,-1.25652909279,0.569771707058,,-0.00140270392876,0.0113233262673,0.695016920567,0.718902885914
1549647136009916038,,477933,,1549647136,9574307,"""world""",,,1.78491652012,-1.25612854958,0.56969588995,,-0.0010488757398,0.0109302178025,0.694852471352,0.719068467617
1549647136020620975,,477934,,1549647136,20128635,"""world""",,,1.78512501717,-1.2553948164,0.569731891155,,-0.000733462278731,0.0111734746024,0.695255994797,0.718675017357
1549647136030877181,,477935,,1549647136,30508923,"""world""",,,1.78522825241,-1.2543091774,0.569790482521,,-0.000757847039495,0.0112252095714,0.695832073689,0.718116462231
1549647136031006352,,477936,,1549647136,30551573,"""world""",,,1.7854603529,-1.25277781487,0.569880902767,,-0.0008160705911,0.0123255904764,0.695789158344,0.718139946461
1549647136040257411,,477937,,1549647136,39922466,"""world""",,,1.78572261333,-1.25096309185,0.569876074791,,-0.00160139752552,0.0121018700302,0.695310413837,0.718605995178
1549647136050560547,,477938,,1549647136,50336259,"""world""",,,1.78584372997,-1.2492607832,0.569955527782,,-0.00202952511609,0.0125264236704,0.695193767548,0.718710362911
1549647136059890017,,477939,,1549647136,59685630,"""world""",,,1.78603756428,-1.2477684021,0.570041120052,,-0.00197908724658,0.0133530115709,0.695370256901,0.718524873257
1549647136070225939,,477940,,1549647136,70004926,"""world""",,,1.78611826897,-1.24644386768,0.570138812065,,-0.00334347249009,0.0136822648346,0.696021020412,0.717883348465
1549647136080579222,,477941,,1549647136,80315584,"""world""",,,1.7862226963,-1.24520206451,0.570097625256,,-0.00294991559349,0.0133373849094,0.695793032646,0.718112409115
1549647136080614123,,477942,,1549647136,80347674,"""world""",,,1.78635561466,-1.24422931671,0.570150852203,,-0.00278857001103,0.0135504920036,0.696168005466,0.717745602131
1549647136089803807,,477943,,1549647136,89570429,"""world""",,,1.78636944294,-1.24335515499,0.570195674896,,-0.00330520817079,0.0136689282954,0.6958938241,0.718006968498
1549647136100185471,,477944,,1549647136,99905669,"""world""",,,1.78636562824,-1.24256694317,0.570071339607,,-0.00275519979186,0.0131263192743,0.695390224457,0.718507289886
1549647136110494464,,477945,,1549647136,110211485,"""world""",,,1.78627026081,-1.24201107025,0.570026397705,,-0.00233211857267,0.0124601460993,0.6952496171,0.718656659126
1549647136120993338,,477946,,1549647136,120615411,"""world""",,,1.78621530533,-1.24130558968,0.570004463196,,-0.00207436457276,0.012199042365,0.695233821869,0.718677222729
1549647136130429857,,477947,,1549647136,130014246,"""world""",,,1.78614366055,-1.24046373367,0.569966435432,,-0.00210250215605,0.0120152533054,0.6951405406,0.718770444393
1549647136130476592,,477948,,1549647136,130093663,"""world""",,,1.78603744507,-1.23958218098,0.569973409176,,-0.0023367353715,0.0118911257014,0.695318937302,0.718599140644
1549647136141364841,,477949,,1549647136,140518118,"""world""",,,1.78610754013,-1.23849833012,0.570081055164,,-0.00218765693717,0.0125653678551,0.695393204689,0.718516349792
1549647136150384934,,477950,,1549647136,150030707,"""world""",,,1.78625023365,-1.23713374138,0.570127248764,,-0.00226640864275,0.0131200719625,0.694668054581,0.71920722723
1549647136160851763,,477951,,1549647136,160442560,"""world""",,,1.78644609451,-1.23578751087,0.570196330547,,-0.00267021358013,0.0134858600795,0.695373594761,0.718517005444
1549647136170347090,,477952,,1549647136,169909492,"""world""",,,1.78667485714,-1.23434937,0.570274293423,,-0.00278272875585,0.0135536445305,0.694870650768,0.719001710415
1549647136180740880,,477953,,1549647136,180435431,"""world""",,,1.78682935238,-1.23317348957,0.570306360722,,-0.003170351265,0.0137693658471,0.694684922695,0.71917539835
1549647136180770303,,477954,,1549647136,180481559,"""world""",,,1.78705656528,-1.23209357262,0.5703779459,,-0.00398420682177,0.0144556956366,0.694878458977,0.718970894814
1549647136191040546,,477955,,1549647136,189765096,"""world""",,,1.78715574741,-1.2311770916,0.570437967777,,-0.00411582319066,0.0146768856794,0.69535446167,0.718505322933
1549647136200299926,,477956,,1549647136,200087710,"""world""",,,1.78728461266,-1.23054075241,0.57034599781,,-0.00315136136487,0.013559258543,0.695561945438,0.718331336975
1549647136210699039,,477957,,1549647136,210412002,"""world""",,,1.78741681576,-1.23008561134,0.570363223553,,-0.00340349623002,0.0136630255729,0.695914566517,0.71798658371
1549647136220092839,,477958,,1549647136,219803077,"""world""",,,1.78756904602,-1.22954440117,0.570381522179,,-0.00292983767577,0.0134646883234,0.69634360075,0.717576265335
1549647136230380502,,477959,,1549647136,230096819,"""world""",,,1.78776669502,-1.22887790203,0.570364415646,,-0.00279660220258,0.0133529026061,0.69632089138,0.717601001263
1549647136230415742,,477960,,1549647136,230123799,"""world""",,,1.7879178524,-1.22816133499,0.570357561111,,-0.00251342914999,0.0132065806538,0.6965970397,0.717336654663
1549647136240970558,,477961,,1549647136,240386558,"""world""",,,1.78804838657,-1.22724330425,0.570327341557,,-0.0017188761849,0.0121437693015,0.696214973927,0.717728674412
1549647136249854155,,477962,,1549647136,249635958,"""world""",,,1.78831470013,-1.22607564926,0.570231497288,,-0.00208348594606,0.0122754937038,0.694858849049,0.719038426876
1549647136260341149,,477963,,1549647136,260076391,"""world""",,,1.78840827942,-1.22503769398,0.57027554512,,-0.00202063750476,0.0127288261428,0.69490301609,0.718988060951
1549647136270641265,,477964,,1549647136,270392371,"""world""",,,1.7884311676,-1.22394168377,0.570356190205,,-0.00215404876508,0.0130770504475,0.695754945278,0.718156993389
1549647136279988124,,477965,,1549647136,279675403,"""world""",,,1.78845608234,-1.22280824184,0.570424258709,,-0.00227794540115,0.0132987108082,0.696045517921,0.717870950699
1549647136290435085,,477966,,1549647136,290083874,"""world""",,,1.78856432438,-1.22162973881,0.570429861546,,-0.00255894218571,0.013669337146,0.696048736572,0.71785992384
1549647136290462899,,477967,,1549647136,290117332,"""world""",,,1.78864312172,-1.22053480148,0.570448279381,,-0.00281939352863,0.0141154350713,0.696363627911,0.717544853687
1549647136300679534,,477968,,1549647136,300439261,"""world""",,,1.78865599632,-1.2195649147,0.570464849472,,-0.00279646366835,0.0135540543124,0.696137368679,0.717775285244
1549647136310062488,,477969,,1549647136,309829490,"""world""",,,1.78867411613,-1.21861720085,0.57044428587,,-0.00261117401533,0.0131271230057,0.69577896595,0.718131303787
1549647136320300434,,477970,,1549647136,320095616,"""world""",,,1.78870642185,-1.21792531013,0.570533633232,,-0.00294815795496,0.0135581437498,0.695493578911,0.7183983922
1549647136330698966,,477971,,1549647136,330447006,"""world""",,,1.78865849972,-1.21718263626,0.570505797863,,-0.00295200385153,0.0131290471181,0.695561826229,0.718340218067
1549647136330724937,,477972,,1549647136,330477088,"""world""",,,1.78871822357,-1.21640622616,0.570513665676,,-0.00293368822895,0.0134274763986,0.695604145527,0.718293845654
1549647136340052900,,477973,,1549647136,339755130,"""world""",,,1.78872096539,-1.21572458744,0.570550978184,,-0.00235621910542,0.0132352020591,0.695555090904,0.718347012997
1549647136350287030,,477974,,1549647136,350015941,"""world""",,,1.78858244419,-1.21489870548,0.570566475391,,-0.00225840951316,0.0130836647004,0.69672113657,0.717219233513
1549647136360685780,,477975,,1549647136,360394711,"""world""",,,1.78875136375,-1.21361863613,0.570481598377,,-0.00261794496328,0.0129579994828,0.695537030697,0.718368649483
1549647136369906337,,477976,,1549647136,369697576,"""world""",,,1.78876757622,-1.2124298811,0.570510625839,,-0.00322028039955,0.0131873106584,0.695575594902,0.71832472086
1549647136380205946,,477977,,1549647136,379968576,"""world""",,,1.7890740633,-1.21120178699,0.570562303066,,-0.00321474345401,0.0136485779658,0.695469379425,0.718418955803
1549647136380240392,,477978,,1549647136,380034047,"""world""",,,1.78922581673,-1.21009707451,0.570588231087,,-0.00336635485291,0.0139089645818,0.695495963097,0.71838748455
1549647136390578264,,477979,,1549647136,390350541,"""world""",,,1.78930616379,-1.20898830891,0.570488870144,,-0.00295616779476,0.0133878625929,0.695481359959,0.718413412571
1549647136399800233,,477980,,1549647136,399603079,"""world""",,,1.78949344158,-1.20790052414,0.570563495159,,-0.00267546554096,0.0137221971527,0.695384442806,0.718501985073
1549647136410369182,,477981,,1549647136,409965721,"""world""",,,1.78965449333,-1.20697128773,0.570529282093,,-0.0027499825228,0.0139251677319,0.695027410984,0.718843102455
1549647136420508662,,477982,,1549647136,420300776,"""world""",,,1.78974986076,-1.20623826981,0.570542097092,,-0.00262264092453,0.0136961303651,0.695095062256,0.718782544136
1549647136430873362,,477983,,1549647136,430628973,"""world""",,,1.78985416889,-1.20563530922,0.570571899414,,-0.0023524411954,0.0133379939944,0.695604205132,0.718297541142
1549647136430907357,,477984,,1549647136,430661708,"""world""",,,1.78994739056,-1.20492339134,0.570543766022,,-0.00238859769888,0.0131091941148,0.695671617985,0.718236386776
1549647136450559880,,477985,,1549647136,450287909,"""world""",,,1.79002797604,-1.20429074764,0.570632338524,,-0.0017342348583,0.0127635337412,0.697195768356,0.716765105724
1549647136450585771,,477986,,1549647136,450320860,"""world""",,,1.79034626484,-1.20310366154,0.570615112782,,-0.00218567624688,0.0131853371859,0.695406377316,0.71849244833
1549647136459852497,,477987,,1549647136,459615657,"""world""",,,1.79046368599,-1.2021689415,0.570639133453,,-0.0023176567629,0.0134273348376,0.695016860962,0.718864381313
1549647136470446246,,477988,,1549647136,470053282,"""world""",,,1.7905279398,-1.20127749443,0.570626974106,,-0.00242465944029,0.0131914447993,0.695275902748,0.718617796898
1549647136480981110,,477989,,1549647136,480548317,"""world""",,,1.79063034058,-1.20019388199,0.57067990303,,-0.00246958318166,0.013624118641,0.695909380913,0.717996120453
1549647136481064183,,477990,,1549647136,480601137,"""world""",,,1.7906832695,-1.19901823997,0.570668816566,,-0.00287395832129,0.0136790564284,0.69603651762,0.717870354652
1549647136490316517,,477991,,1549647136,489973545,"""world""",,,1.7907384634,-1.19781148434,0.570679426193,,-0.00309790251777,0.0137364463881,0.695767223835,0.718129336834
1549647136501132665,,477992,,1549647136,500415164,"""world""",,,1.790771842,-1.19671535492,0.570698857307,,-0.00230739079416,0.013412790373,0.695649504662,0.71825248003
1549647136510060048,,477993,,1549647136,509850118,"""world""",,,1.79078245163,-1.19579577446,0.570752263069,,-0.00236101541668,0.0131628978997,0.695582568645,0.718321800232
1549647136520251346,,477994,,1549647136,520090801,"""world""",,,1.79092681408,-1.19467067719,0.570404529572,,-0.00555912544951,0.0116578014567,0.692787289619,0.721026360989
1549647136530530871,,477995,,1549647136,530350606,"""world""",,,1.790756464,-1.1938791275,0.570597410202,,-0.00252209510654,0.0128420079127,0.695020139217,0.718871176243
1549647136539724667,,477996,,1549647136,539507273,"""world""",,,1.79076635838,-1.19301462173,0.570600628853,,-0.00221353420056,0.0128570236266,0.694978415966,0.718912243843
1549647136549904170,,477997,,1549647136,549728274,"""world""",,,1.79082489014,-1.19233286381,0.570664227009,,-0.00176849763375,0.0126549499109,0.695063352585,0.718834936619
1549647136549924754,,477998,,1549647136,549747071,"""world""",,,1.7908706665,-1.19161903858,0.570705771446,,-0.00180114421528,0.0125189069659,0.694998621941,0.718899905682
1549647136560288684,,477999,,1549647136,560050586,"""world""",,,1.79097676277,-1.19076311588,0.570704519749,,-0.00204077316448,0.0126520637423,0.695154070854,0.718746602535
1549647136570458176,,478000,,1549647136,570284364,"""world""",,,1.79100263119,-1.18998277187,0.570673465729,,-0.00186268787365,0.0122433146462,0.695703685284,0.718222200871
1549647136581050194,,478001,,1549647136,580792249,"""world""",,,1.7911273241,-1.18901860714,0.570630311966,,-0.0016584204277,0.012027583085,0.695974707603,0.717963695526
1549647136581064126,,478002,,1549647136,580818324,"""world""",,,1.79138088226,-1.18789875507,0.570608377457,,-0.00165707268752,0.0123109621927,0.695603311062,0.718318760395
1549647136590267999,,478003,,1549647136,590044624,"""world""",,,1.79151749611,-1.18684279919,0.570713698864,,-0.0023177752737,0.0129963513464,0.695398151875,0.718503475189
1549647136600588303,,478004,,1549647136,600319190,"""world""",,,1.79167330265,-1.18578803539,0.570793271065,,-0.00241723749787,0.0132438698784,0.695658683777,0.718246281147
1549647136609791657,,478005,,1549647136,609615039,"""world""",,,1.79188585281,-1.18476831913,0.570829749107,,-0.00255425763316,0.0133105730638,0.695756793022,0.718149602413
1549647136620056926,,478006,,1549647136,619860192,"""world""",,,1.79208564758,-1.18377375603,0.570870757103,,-0.00239753699861,0.0136158801615,0.695744931698,0.718155920506
1549647136630294301,,478007,,1549647136,630109515,"""world""",,,1.79227590561,-1.18269431591,0.57083684206,,-0.00274442881346,0.0138263385743,0.69536870718,0.718514978886
1549647136630319434,,478008,,1549647136,630133662,"""world""",,,1.79235506058,-1.18197119236,0.570804953575,,-0.0024587973021,0.0131700728089,0.695439577103,0.718459665775
1549647136640535892,,478009,,1549647136,640380705,"""world""",,,1.79246556759,-1.18123745918,0.570708334446,,-0.00145506171975,0.0127141643316,0.69499117136,0.71890437603
1549647136649692431,,478010,,1549647136,649536164,"""world""",,,1.79253745079,-1.180347085,0.570707023144,,-0.00139073119499,0.0124145625159,0.694999158382,0.718902111053
1549647136660046986,,478011,,1549647136,659798453,"""world""",,,1.79249060154,-1.17951369286,0.570713579655,,-0.00161554687656,0.0123964287341,0.695221722126,0.718686640263
1549647136670329564,,478012,,1549647136,670121409,"""world""",,,1.79245173931,-1.17871582508,0.570745766163,,-0.00149579136632,0.0123535264283,0.69508433342,0.718820571899
1549647136680591144,,478013,,1549647136,680398987,"""world""",,,1.79235184193,-1.17770373821,0.570747375488,,-0.00150846817996,0.0121755059808,0.694934844971,0.718968033791
1549647136680614837,,478014,,1549647136,680425003,"""world""",,,1.79239439964,-1.17658376694,0.570742487907,,-0.00163703155704,0.0125975785777,0.694674611092,0.719211935997
1549647136689900996,,478015,,1549647136,689698179,"""world""",,,1.79233670235,-1.17575597763,0.57074123621,,-0.00173998856917,0.0124225663021,0.69490224123,0.718994855881
1549647136700683616,,478016,,1549647136,700224541,"""world""",,,1.79225814342,-1.17483305931,0.570822477341,,-0.00228280131705,0.0124038401991,0.695713460445,0.718208670616
1549647136710731990,,478017,,1549647136,710338202,"""world""",,,1.79224467278,-1.17389523983,0.570787191391,,-0.00151045341045,0.0117464354262,0.695955038071,0.717987716198
1549647136720112579,,478018,,1549647136,719716262,"""world""",,,1.79231917858,-1.17286384106,0.570819497108,,-0.0014408021234,0.0119309360161,0.696183919907,0.717762947083
1549647136730551763,,478019,,1549647136,730129799,"""world""",,,1.79273581505,-1.17135107517,0.570603430271,,-0.00559168029577,0.0113212428987,0.692583739758,0.721226930618
1549647136740774293,,478020,,1549647136,740520477,"""world""",,,1.79267370701,-1.1704262495,0.570871293545,,-0.00194185378496,0.0117725301534,0.695237338543,0.718681275845
1549647136740967381,,478021,,1549647136,740551264,"""world""",,,1.79285335541,-1.16937017441,0.570917665958,,-0.0019559757784,0.01228563115,0.695140361786,0.718766391277
