rosbagTimestamp,header,seq,stamp,secs,nsecs,frame_id,pose,position,x,y,z,orientation,x,y,z,w
1549646530761187407,,405536,,1549646530,760866467,"""world""",,,1.78979849815,-1.28055763245,0.569711208344,,-0.00202642148361,0.0116345351562,0.720251381397,0.69361269474
1549646530761216607,,405537,,1549646530,760898982,"""world""",,,1.78978681564,-1.28056001663,0.569705963135,,-0.00214832206257,0.0115300444886,0.720238566399,0.693627357483
1549646530771372624,,405538,,1549646530,770192113,"""world""",,,1.78978157043,-1.28055346012,0.569717049599,,-0.00207925238647,0.0115599771962,0.720267117023,0.693597435951
1549646530780647016,,405539,,1549646530,780558983,"""world""",,,1.78979039192,-1.28055560589,0.56972181797,,-0.00219135545194,0.0116548268124,0.720302045345,0.693559169769
1549646530790408632,,405540,,1549646530,790174330,"""world""",,,1.78977501392,-1.28056049347,0.569718837738,,-0.00214867154136,0.0115359826013,0.720207333565,0.693659722805
1549646530800637594,,405541,,1549646530,800475776,"""world""",,,1.78979110718,-1.28056442738,0.56971681118,,-0.00222290982492,0.011536645703,0.720200777054,0.693666279316
1549646530809913145,,405542,,1549646530,809731871,"""world""",,,1.78976535797,-1.28056204319,0.569719493389,,-0.0023672466632,0.0116716176271,0.720241844654,0.693620860577
1549646530820309950,,405543,,1549646530,820104325,"""world""",,,1.78976881504,-1.28056633472,0.569719195366,,-0.0022886255756,0.0115652829409,0.72033816576,0.693522930145
1549646530820333589,,405544,,1549646530,820129943,"""world""",,,1.7897926569,-1.28056585789,0.569718122482,,-0.00223368615843,0.011616085656,0.720384657383,0.693473935127
1549646530830503929,,405545,,1549646530,830351887,"""world""",,,1.78977262974,-1.28055989742,0.569704651833,,-0.00226016785018,0.0114783206955,0.720357060432,0.693504810333
1549646530839697482,,405546,,1549646530,839518118,"""world""",,,1.78978812695,-1.28055775166,0.569701433182,,-0.00222356035374,0.0115925651044,0.720271527767,0.693591892719
1549646530849936815,,405547,,1549646530,849767799,"""world""",,,1.78978192806,-1.28056848049,0.569718003273,,-0.00218684924766,0.0117334285751,0.720336019993,0.693522632122
1549646530860186240,,405548,,1549646530,860023212,"""world""",,,1.78978896141,-1.28056466579,0.569720983505,,-0.00208127731457,0.0115945115685,0.720273911953,0.693589746952
1549646530870467272,,405549,,1549646530,870274926,"""world""",,,1.7897939682,-1.28052091599,0.569707870483,,-0.0021110160742,0.0115634780377,0.720143258572,0.693725824356
1549646530870489179,,405550,,1549646530,870294724,"""world""",,,1.78979206085,-1.28052699566,0.56971848011,,-0.00207944191061,0.0115768881515,0.720191538334,0.693675577641
1549646530880718711,,405551,,1549646530,880533275,"""world""",,,1.78977382183,-1.2805711031,0.569712638855,,-0.00202019140124,0.0114672109485,0.720224559307,0.693643391132
1549646530890015432,,405552,,1549646530,889841731,"""world""",,,1.78977394104,-1.2805891037,0.569708764553,,-0.00201707077213,0.0113398656249,0.720219135284,0.693651080132
1549646530900351587,,405553,,1549646530,900126671,"""world""",,,1.78977680206,-1.28055632114,0.569722890854,,-0.00205977959558,0.0114850122482,0.72015863657,0.693711400032
1549646530910604059,,405554,,1549646530,910432263,"""world""",,,1.78977024555,-1.28057062626,0.569715082645,,-0.00210353010334,0.0114452335984,0.720090925694,0.69378221035
1549646530920046014,,405555,,1549646530,919831823,"""world""",,,1.78976070881,-1.28057670593,0.569731295109,,-0.00207972549833,0.0115581331775,0.72025424242,0.693610846996
1549646530920074567,,405556,,1549646530,919860002,"""world""",,,1.7897785902,-1.28056657314,0.569698989391,,-0.00214603543282,0.0114870853722,0.720290124416,0.693574488163
1549646530930332239,,405557,,1549646530,930142153,"""world""",,,1.78977334499,-1.28058576584,0.569703698158,,-0.00207897275686,0.011474407278,0.720254957676,0.693611443043
1549646530940682505,,405558,,1549646530,940479525,"""world""",,,1.7897913456,-1.28057849407,0.569700360298,,-0.00205417722464,0.0116327963769,0.72026604414,0.693597435951
1549646530949939723,,405559,,1549646530,949753728,"""world""",,,1.78977906704,-1.28056752682,0.569715440273,,-0.00202333950438,0.0114806024358,0.720175683498,0.693693876266
1549646530960262335,,405560,,1549646530,960049517,"""world""",,,1.78977453709,-1.28057003021,0.569733381271,,-0.00206665415317,0.0115934219211,0.720138311386,0.693730592728
1549646530970480541,,405561,,1549646530,970282737,"""world""",,,1.78978466988,-1.28055512905,0.569742321968,,-0.00205859541893,0.0116773769259,0.720169425011,0.693696916103
1549646530970498453,,405562,,1549646530,970302965,"""world""",,,1.78977894783,-1.28054273129,0.569723010063,,-0.00220137368888,0.0116803115234,0.720225632191,0.693638145924
1549646530980742175,,405563,,1549646530,980506795,"""world""",,,1.78977656364,-1.28055477142,0.569726645947,,-0.0021816175431,0.0117354923859,0.720215499401,0.693647742271
1549646530990031177,,405564,,1549646530,989810890,"""world""",,,1.78978526592,-1.28051126003,0.569736361504,,-0.00219833292067,0.0118009978905,0.72010153532,0.693764984608
1549646531000308957,,405565,,1549646531,160402,"""world""",,,1.78977823257,-1.28051197529,0.569736480713,,-0.0021901843138,0.0116578284651,0.72023910284,0.69362449646
1549646531010685265,,405566,,1549646531,10511419,"""world""",,,1.78978300095,-1.28053069115,0.569735586643,,-0.00200557196513,0.0116317765787,0.720268666744,0.693594872952
1549646531019911495,,405567,,1549646531,19725129,"""world""",,,1.7897888422,-1.2805429697,0.569747447968,,-0.00199228874408,0.0115592321381,0.720275342464,0.693589150906
1549646531019964751,,405568,,1549646531,19743724,"""world""",,,1.78978955746,-1.28055334091,0.569739818573,,-0.00212014350109,0.0117015698925,0.720438420773,0.693417072296
1549646531030540769,,405569,,1549646531,30171290,"""world""",,,1.7897772789,-1.28055477142,0.569746077061,,-0.0021667140536,0.0116407070309,0.720344424248,0.693515539169
1549646531041154522,,405570,,1549646531,40698770,"""world""",,,1.7897875309,-1.2805492878,0.569759070873,,-0.00217886129394,0.0117843532935,0.720285475254,0.693574309349
1549646531050624399,,405571,,1549646531,50145421,"""world""",,,1.78978347778,-1.28055632114,0.569764077663,,-0.00215955008753,0.011727578938,0.720251202583,0.693610966206
1549646531060999606,,405572,,1549646531,60648569,"""world""",,,1.78978645802,-1.28055763245,0.569764792919,,-0.00217591272667,0.0117076104507,0.720304846764,0.693555474281
1549646531070435312,,405573,,1549646531,70067966,"""world""",,,1.7897939682,-1.28056204319,0.569768846035,,-0.00216319900937,0.0116510456428,0.720310986042,0.693549990654
1549646531070480783,,405574,,1549646531,70119689,"""world""",,,1.78978717327,-1.28058004379,0.569761514664,,-0.00209836056456,0.0115537475795,0.720411658287,0.693447291851
1549646531080693095,,405575,,1549646531,80486135,"""world""",,,1.78978812695,-1.28055143356,0.56974709034,,-0.00220265914686,0.0115372072905,0.720260262489,0.693604528904
1549646531090174048,,405576,,1549646531,89820684,"""world""",,,1.78981292248,-1.28057467937,0.569752693176,,-0.00217204424553,0.0115969404578,0.720393717289,0.69346511364
1549646531100838335,,405577,,1549646531,100425725,"""world""",,,1.78981268406,-1.28054392338,0.569742977619,,-0.00222415942699,0.0116539690644,0.720365166664,0.693493485451
1549646531110293723,,405578,,1549646531,109894303,"""world""",,,1.78980052471,-1.28054261208,0.569733023643,,-0.00225023366511,0.0117006488144,0.720330119133,0.693529069424
1549646531120786696,,405579,,1549646531,120343079,"""world""",,,1.78979218006,-1.28055226803,0.569741547108,,-0.00224849698134,0.0117010511458,0.720309138298,0.693550825119
1549646531130049430,,405580,,1549646531,129612542,"""world""",,,1.78980517387,-1.28055799007,0.569744169712,,-0.00213062367402,0.011571845971,0.720323503017,0.693538546562
1549646531130090385,,405581,,1549646531,129650461,"""world""",,,1.78980135918,-1.28057181835,0.5697504282,,-0.00209992704913,0.0115826511756,0.720330953598,0.693530619144
1549646531140288396,,405582,,1549646531,139991124,"""world""",,,1.78981566429,-1.28056502342,0.569742679596,,-0.00218242849223,0.011575659737,0.720361471176,0.693498909473
1549646531150491672,,405583,,1549646531,150241877,"""world""",,,1.78981232643,-1.28055500984,0.56976377964,,-0.00215960806236,0.0117934774607,0.720337450504,0.693520188332
1549646531160786364,,405584,,1549646531,160542726,"""world""",,,1.78982400894,-1.28054082394,0.569751620293,,-0.00213512522168,0.0116985915229,0.720243036747,0.693619906902
1549646531170080946,,405585,,1549646531,169809642,"""world""",,,1.78982019424,-1.28052663803,0.569750130177,,-0.00224587949924,0.0117470789701,0.720274925232,0.693585634232
1549646531170106171,,405586,,1549646531,169834717,"""world""",,,1.78982126713,-1.28052961826,0.569764554501,,-0.00225503812544,0.0117721213028,0.720322906971,0.693535387516
1549646531180391047,,405587,,1549646531,180085547,"""world""",,,1.7898080349,-1.28052639961,0.569762527943,,-0.00227217166685,0.0117391142994,0.720275104046,0.693585455418
1549646531190756398,,405588,,1549646531,190501325,"""world""",,,1.78983068466,-1.28051006794,0.569759309292,,-0.00222178129479,0.0117994137108,0.720316588879,0.693541586399
1549646531200040908,,405589,,1549646531,199803073,"""world""",,,1.78981244564,-1.28052389622,0.569755077362,,-0.00222989870235,0.0117359869182,0.720366537571,0.693490743637
1549646531210401684,,405590,,1549646531,210131905,"""world""",,,1.78982508183,-1.2805339098,0.56975287199,,-0.00217946269549,0.0116778397933,0.720371246338,0.69348692894
1549646531220793005,,405591,,1549646531,220505339,"""world""",,,1.78981661797,-1.28055083752,0.569741666317,,-0.0020925605204,0.0116813546047,0.720421254635,0.693435311317
1549646531230133946,,405592,,1549646531,229874703,"""world""",,,1.78981137276,-1.28055179119,0.569746613503,,-0.00206120428629,0.0116610145196,0.720447361469,0.693408608437
1549646531230170686,,405593,,1549646531,229900873,"""world""",,,1.7898068428,-1.28055107594,0.569739460945,,-0.00217830226757,0.0116655472666,0.720481872559,0.693372249603
1549646531240431251,,405594,,1549646531,240194565,"""world""",,,1.78981566429,-1.28055381775,0.56972527504,,-0.00216707959771,0.0116338813677,0.720371127129,0.693487882614
1549646531250893118,,405595,,1549646531,250547655,"""world""",,,1.78981328011,-1.28057277203,0.569725692272,,-0.00207685260102,0.0116270445287,0.720393419266,0.693465173244
1549646531260380008,,405596,,1549646531,260006618,"""world""",,,1.7898170948,-1.28054451942,0.569736540318,,-0.0020345360972,0.0117312567309,0.720370709896,0.693487107754
1549646531270859659,,405597,,1549646531,270461831,"""world""",,,1.78980886936,-1.28055953979,0.569718122482,,-0.00206352211535,0.0116634806618,0.72042787075,0.693428814411
1549646531270916804,,405598,,1549646531,270514849,"""world""",,,1.78982079029,-1.28054594994,0.5697260499,,-0.00213605468161,0.0117969699204,0.720480263233,0.693371772766
1549646531280405417,,405599,,1549646531,279977195,"""world""",,,1.78980410099,-1.28056323528,0.569719076157,,-0.0021070423536,0.0117557160556,0.720486283302,0.693366348743
1549646531290553742,,405600,,1549646531,290318614,"""world""",,,1.78980731964,-1.2805557251,0.569708943367,,-0.00207026465796,0.0116426469758,0.720379292965,0.693479537964
1549646531300888006,,405601,,1549646531,300595053,"""world""",,,1.78981816769,-1.28054332733,0.569713413715,,-0.00210343673825,0.0116776823997,0.720339179039,0.693520605564
1549646531310287402,,405602,,1549646531,310129562,"""world""",,,1.78980648518,-1.28054976463,0.56969410181,,-0.0020981032867,0.0115589946508,0.72029876709,0.693564474583
1549646531320571270,,405603,,1549646531,320391622,"""world""",,,1.78981363773,-1.28056752682,0.569704353809,,-0.00204033986665,0.0116029651836,0.720492184162,0.693363010883
1549646531320592077,,405604,,1549646531,320414596,"""world""",,,1.78979790211,-1.28056001663,0.569691002369,,-0.00212137983181,0.011604860425,0.720435798168,0.693421304226
1549646531329802196,,405605,,1549646531,329659141,"""world""",,,1.78978967667,-1.2805416584,0.569701492786,,-0.00216512428597,0.0116308759898,0.720392107964,0.693466186523
1549646531340164390,,405606,,1549646531,339971922,"""world""",,,1.78979063034,-1.28055679798,0.569710791111,,-0.00213770568371,0.0115797072649,0.720372319221,0.693487644196
1549646531350795340,,405607,,1549646531,350393534,"""world""",,,1.78980362415,-1.2805416584,0.569720983505,,-0.00206639873795,0.011622261256,0.7203784585,0.693480789661
1549646531360069705,,405608,,1549646531,359743691,"""world""",,,1.78980708122,-1.28057527542,0.569720804691,,-0.00200940086506,0.0116010867059,0.720447719097,0.693409383297
1549646531370668589,,405609,,1549646531,370131024,"""world""",,,1.78978717327,-1.28056824207,0.569739758968,,-0.00204456783831,0.0116844512522,0.720425069332,0.693431377411
1549646531370687246,,405610,,1549646531,370194141,"""world""",,,1.7898106575,-1.28056526184,0.569743990898,,-0.00190711184405,0.0116988858208,0.720354795456,0.693504571915
1549646531379934476,,405611,,1549646531,379580464,"""world""",,,1.78980231285,-1.28056263924,0.569731891155,,-0.00195665936917,0.0115838255733,0.720460474491,0.693396568298
1549646531390103273,,405612,,1549646531,389897072,"""world""",,,1.78981375694,-1.28055906296,0.569720089436,,-0.00200522691011,0.0115597946569,0.720303237438,0.693560183048
1549646531400413636,,405613,,1549646531,400183566,"""world""",,,1.78980648518,-1.28057610989,0.569729685783,,-0.00198811292648,0.0116144800559,0.72043710947,0.693420231342
1549646531410791041,,405614,,1549646531,410540489,"""world""",,,1.78980886936,-1.28056871891,0.569739282131,,-0.00197198311798,0.0116484155878,0.720431804657,0.693425178528
1549646531410827700,,405615,,1549646531,410572127,"""world""",,,1.78982102871,-1.28056061268,0.569736003876,,-0.00191473215818,0.011707178317,0.720458567142,0.693396568298
1549646531420104264,,405616,,1549646531,419835753,"""world""",,,1.78982329369,-1.28056526184,0.569722950459,,-0.00192782562226,0.0115774124861,0.720453858376,0.693403661251
1549646531430458229,,405617,,1549646531,430222203,"""world""",,,1.78982055187,-1.28056037426,0.569736242294,,-0.00190701673273,0.0116298524663,0.7205478549,0.693305075169
1549646531440837236,,405618,,1549646531,440584957,"""world""",,,1.78981053829,-1.28057456017,0.569746673107,,-0.00190789776389,0.0116232121363,0.720605492592,0.693245351315
1549646531450059467,,405619,,1549646531,449855031,"""world""",,,1.78980696201,-1.28055214882,0.569746613503,,-0.00203231582418,0.0117040425539,0.720424354076,0.693431913853
1549646531460426994,,405620,,1549646531,460213094,"""world""",,,1.78980326653,-1.28056919575,0.569734275341,,-0.00210681534372,0.0117338346317,0.720552027225,0.693298459053
1549646531470780895,,405621,,1549646531,470540960,"""world""",,,1.78979945183,-1.28060531616,0.569749951363,,-0.00199280539528,0.0116727584973,0.720576584339,0.693274259567
1549646531470804010,,405622,,1549646531,470571574,"""world""",,,1.78978776932,-1.28056824207,0.569733262062,,-0.00214167847298,0.0116921337321,0.720454156399,0.693400681019
1549646531480126780,,405623,,1549646531,479872279,"""world""",,,1.78977811337,-1.28056609631,0.569722354412,,-0.00216164137237,0.0116505287588,0.720334291458,0.693525910378
1549646531490551894,,405624,,1549646531,490295260,"""world""",,,1.78978276253,-1.28056502342,0.569738447666,,-0.00213350565173,0.0117066958919,0.720307469368,0.693552851677
1549646531500092514,,405625,,1549646531,499557368,"""world""",,,1.78977501392,-1.28057062626,0.569722056389,,-0.00214867759496,0.0115539710969,0.720411062241,0.693447768688
1549646531510151178,,405626,,1549646531,509911116,"""world""",,,1.78977489471,-1.28056848049,0.569721221924,,-0.00207051821053,0.0116311935708,0.72039014101,0.693468511105
1549646531520515530,,405627,,1549646531,520273638,"""world""",,,1.78977453709,-1.28056883812,0.569733977318,,-0.00206574634649,0.0116482870653,0.720358967781,0.693500578403
1549646531520537608,,405628,,1549646531,520301611,"""world""",,,1.78979504108,-1.28056061268,0.569747447968,,-0.00201080203988,0.0117530468851,0.720307469368,0.693552434444
1549646531530865329,,405629,,1549646531,530646024,"""world""",,,1.78977942467,-1.28058159351,0.569742441177,,-0.00212585530244,0.0116778798401,0.720395028591,0.693462371826
1549646531540372573,,405630,,1549646531,540087843,"""world""",,,1.78978097439,-1.28060054779,0.569741427898,,-0.00202416791581,0.0116508444771,0.720373034477,0.693486094475
1549646531550687717,,405631,,1549646531,550372719,"""world""",,,1.7897824049,-1.28059220314,0.569737076759,,-0.00214104028419,0.011684701778,0.720394015312,0.693463385105
1549646531560627147,,405632,,1549646531,559787602,"""world""",,,1.78980457783,-1.28058099747,0.569743871689,,-0.00187707156874,0.0116285597906,0.720463037491,0.693393349648
1549646531570369278,,405633,,1549646531,570064193,"""world""",,,1.78978323936,-1.28055810928,0.569718897343,,-0.00207217852585,0.0116112912074,0.720347166061,0.693513453007
1549646531570401304,,405634,,1549646531,570108149,"""world""",,,1.78978657722,-1.28058040142,0.569730877876,,-0.00200911192223,0.011629533954,0.720456600189,0.693399608135
1549646531580686335,,405635,,1549646531,580378382,"""world""",,,1.78979456425,-1.28057801723,0.569735467434,,-0.00196316814981,0.0117727015167,0.72041529417,0.693440258503
1549646531589784081,,405636,,1549646531,589581907,"""world""",,,1.78978145123,-1.28058242798,0.569704115391,,-0.00208043376915,0.0116488439962,0.72047072649,0.693384349346
1549646531600148037,,405637,,1549646531,599944028,"""world""",,,1.78978991508,-1.28057730198,0.569709777832,,-0.00205550761893,0.0117184817791,0.720542013645,0.693309307098
1549646531610704458,,405638,,1549646531,610442000,"""world""",,,1.78979182243,-1.28058838844,0.569717228413,,-0.00206903857179,0.0116738071665,0.720534205437,0.693318128586
1549646531620007034,,405639,,1549646531,619759171,"""world""",,,1.78977167606,-1.28060424328,0.569713354111,,-0.00219192774966,0.0116680907086,0.720487535,0.693366348743
1549646531620031356,,405640,,1549646531,619790743,"""world""",,,1.78977608681,-1.28060877323,0.569736421108,,-0.00212108413689,0.0116734076291,0.720478653908,0.693375647068
1549646531630417706,,405641,,1549646531,630162193,"""world""",,,1.78978061676,-1.28060925007,0.569743692875,,-0.00206328649074,0.0116772465408,0.72053861618,0.693313479424
1549646531640696386,,405642,,1549646531,640444248,"""world""",,,1.7897746563,-1.28061187267,0.569717288017,,-0.00207427632995,0.0115428678691,0.720406889915,0.69345253706
1549646531650023811,,405643,,1549646531,649780469,"""world""",,,1.78976118565,-1.28061425686,0.569732666016,,-0.00210983748548,0.0116909164935,0.720454514027,0.6934004426
1549646531660333398,,405644,,1549646531,660077829,"""world""",,,1.78977274895,-1.28061330318,0.569711446762,,-0.00218916591257,0.0116089992225,0.720385611057,0.693473279476
1549646531670618739,,405645,,1549646531,670335715,"""world""",,,1.78976428509,-1.28062522411,0.5697286129,,-0.00216404953972,0.0116100767627,0.720413923264,0.693443894386
1549646531670642041,,405646,,1549646531,670371223,"""world""",,,1.78977358341,-1.2806096077,0.56972849369,,-0.00212916894816,0.0116171427071,0.720413804054,0.693444013596
1549646531679884551,,405647,,1549646531,679627995,"""world""",,,1.78975534439,-1.28060877323,0.569714963436,,-0.00215612095781,0.0115479845554,0.720393002033,0.693466663361
1549646531690225175,,405648,,1549646531,689939414,"""world""",,,1.78975427151,-1.28062105179,0.569713771343,,-0.0022097826004,0.0115798795596,0.72048830986,0.69336694479
1549646531700475635,,405649,,1549646531,700206373,"""world""",,,1.78975558281,-1.28060030937,0.569724738598,,-0.00219742348418,0.0116708213463,0.720470130444,0.693384408951
1549646531710881764,,405650,,1549646531,710596100,"""world""",,,1.78976202011,-1.28057122231,0.56972181797,,-0.00222824327648,0.0117309549823,0.720359325409,0.693498313427
1549646531720240965,,405651,,1549646531,719952350,"""world""",,,1.78975570202,-1.28058552742,0.56971681118,,-0.00221690861508,0.0116020487621,0.72040194273,0.693456351757
1549646531720272492,,405652,,1549646531,719983468,"""world""",,,1.78976118565,-1.28058254719,0.56972271204,,-0.00217851437628,0.011663264595,0.720393717289,0.693463921547
1549646531730688464,,405653,,1549646531,730413276,"""world""",,,1.78975784779,-1.2805968523,0.569722771645,,-0.00220104912296,0.0115032736212,0.720370352268,0.693490743637
1549646531739976055,,405654,,1549646531,739729920,"""world""",,,1.78975450993,-1.280595541,0.569710850716,,-0.00221705972217,0.011447345838,0.7202911973,0.693573832512
1549646531750249932,,405655,,1549646531,750038382,"""world""",,,1.78975820541,-1.28058135509,0.569732785225,,-0.00223384122364,0.011450830847,0.72026348114,0.693602502346
1549646531760808004,,405656,,1549646531,760470421,"""world""",,,1.78975749016,-1.28057956696,0.569721221924,,-0.00220348360017,0.0114804757759,0.720281243324,0.693583667278
1549646531770051218,,405657,,1549646531,769759085,"""world""",,,1.78976094723,-1.28057217598,0.569717764854,,-0.00222253915854,0.0114934993908,0.720222949982,0.693643927574
1549646531770079377,,405658,,1549646531,769785116,"""world""",,,1.78976762295,-1.28057205677,0.569706916809,,-0.00221025524661,0.0114595228806,0.720257282257,0.693608820438
1549646531780356045,,405659,,1549646531,780095653,"""world""",,,1.78975903988,-1.280580163,0.569725394249,,-0.00220569805242,0.0113524096087,0.720227360725,0.693641781807
1549646531790629209,,405660,,1549646531,790414970,"""world""",,,1.78977668285,-1.28054761887,0.569719851017,,-0.00233248621225,0.0116026271135,0.720142602921,0.69372522831
1549646531799961216,,405661,,1549646531,799679583,"""world""",,,1.78976356983,-1.28053295612,0.569721698761,,-0.0023223629687,0.0116155706346,0.720132291317,0.693735718727
1549646531810185595,,405662,,1549646531,809942779,"""world""",,,1.78976976871,-1.28055584431,0.569728314877,,-0.00227587879635,0.011600763537,0.720241546631,0.693622708321
1549646531820638045,,405663,,1549646531,820362213,"""world""",,,1.78977417946,-1.28052723408,0.569735705853,,-0.00222979299724,0.0116593400016,0.720195114613,0.693670094013
1549646531820672738,,405664,,1549646531,820409362,"""world""",,,1.78979635239,-1.28052520752,0.569738507271,,-0.00224847672507,0.0117495926097,0.720330357552,0.693528056145
1549646531829979549,,405665,,1549646531,829738557,"""world""",,,1.78977954388,-1.28052604198,0.569725930691,,-0.00226864800788,0.0117089562118,0.720303356647,0.693556785583
1549646531840349701,,405666,,1549646531,840087295,"""world""",,,1.78978908062,-1.2805365324,0.569732367992,,-0.00226453621872,0.0116828819737,0.720217347145,0.693646550179
1549646531850658423,,405667,,1549646531,850400994,"""world""",,,1.78977537155,-1.28057694435,0.569742143154,,-0.00215360010043,0.0116818444803,0.720327496529,0.693532407284
1549646531860011913,,405668,,1549646531,859740841,"""world""",,,1.78978610039,-1.28056776524,0.569717884064,,-0.00224372604862,0.0116732865572,0.720376074314,0.69348192215
1549646531871041248,,405669,,1549646531,870184405,"""world""",,,1.78977775574,-1.28057122231,0.569711863995,,-0.0022827310022,0.0115819061175,0.720319747925,0.693541765213
1549646531871071232,,405670,,1549646531,870211464,"""world""",,,1.78979182243,-1.28056657314,0.56971269846,,-0.00216434011236,0.0116274058819,0.720320940018,0.693540155888
1549646531880797610,,405671,,1549646531,880485795,"""world""",,,1.78978598118,-1.2805570364,0.569710969925,,-0.00224186782725,0.0116806188598,0.720378041267,0.693479716778
1549646531890145066,,405672,,1549646531,889829352,"""world""",,,1.78978157043,-1.28056812286,0.569710254669,,-0.00216972036287,0.0115889534354,0.720326721668,0.693534731865
1549646531900392938,,405673,,1549646531,900183906,"""world""",,,1.78977930546,-1.28058326244,0.569705367088,,-0.00208246591501,0.0115409847349,0.720254123211,0.693611204624
1549646531910725744,,405674,,1549646531,910492092,"""world""",,,1.78977656364,-1.28057515621,0.569693446159,,-0.00218554912135,0.0114462738857,0.720194518566,0.693674385548
1549646531920160848,,405675,,1549646531,919858421,"""world""",,,1.78975963593,-1.28059279919,0.569697737694,,-0.00214699818753,0.011432996951,0.72039014101,0.693471550941
1549646531920187035,,405676,,1549646531,919886671,"""world""",,,1.78976726532,-1.28060507774,0.569688141346,,-0.00213287305087,0.0114372950047,0.720338821411,0.693524777889
1549646531930408201,,405677,,1549646531,930171532,"""world""",,,1.78976845741,-1.28058934212,0.569693684578,,-0.00210874411277,0.0115031152964,0.720198571682,0.693669378757
1549646531940677806,,405678,,1549646531,940461352,"""world""",,,1.78977513313,-1.28058218956,0.56969243288,,-0.00212176516652,0.0115585681051,0.720284998417,0.693578779697
1549646531949995494,,405679,,1549646531,949735987,"""world""",,,1.78978347778,-1.28056037426,0.569693207741,,-0.00220666103996,0.0117060430348,0.720273315907,0.693588197231
1549646531960267155,,405680,,1549646531,960044875,"""world""",,,1.78978729248,-1.2805866003,0.569715321064,,-0.00215287227184,0.0116835134104,0.720367074013,0.693491280079
1549646531970604491,,405681,,1549646531,970340469,"""world""",,,1.78979766369,-1.2805917263,0.569714605808,,-0.00221839267761,0.0117617938668,0.720387399197,0.693468570709
1549646531970638583,,405682,,1549646531,970372916,"""world""",,,1.78977835178,-1.28059899807,0.569718658924,,-0.00222539203241,0.0116843758151,0.720346152782,0.693512797356
1549646531980081323,,405683,,1549646531,979827291,"""world""",,,1.78976404667,-1.28060793877,0.569702982903,,-0.0023133486975,0.0118039110675,0.720493555069,0.693357348442
1549646531990445624,,405684,,1549646531,990224656,"""world""",,,1.78979611397,-1.28056538105,0.569703042507,,-0.00221745297313,0.0117468228564,0.72031724453,0.693541765213
1549646532000779520,,405685,,1549646532,547962,"""world""",,,1.78979372978,-1.28056669235,0.569709658623,,-0.00213910755701,0.0117707485333,0.720278859138,0.693581461906
1549646532010202902,,405686,,1549646532,9936952,"""world""",,,1.78978824615,-1.28055274487,0.569695234299,,-0.00220688059926,0.0117106959224,0.720224380493,0.693638861179
1549646532020552480,,405687,,1549646532,20210916,"""world""",,,1.78978705406,-1.28056204319,0.569696962833,,-0.00211962265894,0.0116671649739,0.7203515172,0.693507790565
1549646532020572300,,405688,,1549646532,20250912,"""world""",,,1.7897939682,-1.28058111668,0.569707214832,,-0.00209638685919,0.0117126088589,0.720389723778,0.693467438221
1549646532031025529,,405689,,1549646532,30596221,"""world""",,,1.78979921341,-1.28057706356,0.569702148438,,-0.00219980231486,0.0118089392781,0.72023242712,0.693628847599
1549646532040417914,,405690,,1549646532,40030766,"""world""",,,1.78977966309,-1.28059649467,0.569685637951,,-0.00218864460476,0.0116261001676,0.720351457596,0.693508446217
1549646532051024149,,405691,,1549646532,50578504,"""world""",,,1.78976559639,-1.28058731556,0.569679141045,,-0.00218049506657,0.0115263247862,0.72030454874,0.693558812141
1549646532060504265,,405692,,1549646532,60120051,"""world""",,,1.78977131844,-1.28056740761,0.569680690765,,-0.00220951484516,0.0117087680846,0.720311403275,0.693548560143
1549646532070937226,,405693,,1549646532,70531760,"""world""",,,1.78977382183,-1.28055810928,0.569682896137,,-0.00234306324273,0.0116596380249,0.720404744148,0.693451941013
1549646532071028147,,405694,,1549646532,70585397,"""world""",,,1.78976130486,-1.28056395054,0.569679617882,,-0.00235919444822,0.0116278119385,0.720347821712,0.693511664867
1549646532080442943,,405695,,1549646532,80044907,"""world""",,,1.78974831104,-1.28055596352,0.569682657719,,-0.00246796221472,0.0116720544174,0.720379173756,0.693477869034
1549646532090788234,,405696,,1549646532,90524841,"""world""",,,1.78976464272,-1.28053998947,0.569701254368,,-0.00246803415939,0.0118899988011,0.720343947411,0.693510770798
1549646532100164463,,405697,,1549646532,99882361,"""world""",,,1.78977131844,-1.28056955338,0.56968832016,,-0.00231334008276,0.0117542091757,0.720323085785,0.693535268307
1549646532110475159,,405698,,1549646532,110220926,"""world""",,,1.78976714611,-1.28057777882,0.569666981697,,-0.00232500466518,0.0116625754163,0.720311641693,0.693548679352
1549646532120783158,,405699,,1549646532,120512721,"""world""",,,1.78976118565,-1.28058969975,0.56967318058,,-0.00221376051195,0.0115078194067,0.720288336277,0.693575918674
1549646532120814816,,405700,,1549646532,120542086,"""world""",,,1.78977155685,-1.28057849407,0.569679021835,,-0.00221831933595,0.0116195874289,0.720221340656,0.693643510342
1549646532130055931,,405701,,1549646532,129801865,"""world""",,,1.78976976871,-1.28057610989,0.569674909115,,-0.00227294745855,0.0116777485237,0.720183193684,0.693681895733
1549646532140546047,,405702,,1549646532,140299878,"""world""",,,1.7897670269,-1.28057086468,0.569686770439,,-0.00223674951121,0.0116582084447,0.720209002495,0.693655610085
1549646532149860175,,405703,,1549646532,149629954,"""world""",,,1.78977417946,-1.28057122231,0.569684684277,,-0.00235182093456,0.011648196727,0.720270812511,0.693591237068
1549646532160191968,,405704,,1549646532,159954368,"""world""",,,1.78978979588,-1.28056180477,0.569694340229,,-0.00222268025391,0.0117693264037,0.720292627811,0.693566977978
1549646532170526715,,405705,,1549646532,170219663,"""world""",,,1.78979122639,-1.28056406975,0.569678425789,,-0.00231826864183,0.0117168817669,0.720371723175,0.693485379219
1549646532170549418,,405706,,1549646532,170245866,"""world""",,,1.78977453709,-1.28057849407,0.569679796696,,-0.00222225370817,0.0115448515862,0.720320463181,0.693541884422
1549646532180826937,,405707,,1549646532,180506658,"""world""",,,1.78978192806,-1.28058803082,0.569696307182,,-0.00217149662785,0.011702042073,0.72034150362,0.693517506123
1549646532189984470,,405708,,1549646532,189804702,"""world""",,,1.78977966309,-1.28060793877,0.569698691368,,-0.00214984593913,0.0116434888914,0.720464885235,0.693390309811
1549646532200296603,,405709,,1549646532,200063178,"""world""",,,1.78978979588,-1.280600667,0.569712162018,,-0.0021369070746,0.0116684930399,0.720321238041,0.693539261818
1549646532210622774,,405710,,1549646532,210341707,"""world""",,,1.78979122639,-1.28064203262,0.569718122482,,-0.00204136339016,0.0116913300008,0.720532417297,0.693319797516
1549646532219812295,,405711,,1549646532,219526649,"""world""",,,1.78981649876,-1.28061783314,0.569700777531,,-0.00201017875224,0.0116330375895,0.7204413414,0.693415462971
1549646532219844825,,405712,,1549646532,219550969,"""world""",,,1.78981041908,-1.28060829639,0.569708704948,,-0.00200561876409,0.011598566547,0.720419943333,0.693438351154
1549646532230102197,,405713,,1549646532,229844711,"""world""",,,1.78979420662,-1.28057897091,0.569720983505,,-0.00214554183185,0.0116606550291,0.720433831215,0.693422317505
1549646532240374267,,405714,,1549646532,240146940,"""world""",,,1.78980851173,-1.28054368496,0.569712281227,,-0.00227827741764,0.0117601780221,0.720141530037,0.693723857403
1549646532250820168,,405715,,1549646532,250575043,"""world""",,,1.78980958462,-1.2805441618,0.569720983505,,-0.0021694174502,0.0117590297014,0.720211923122,0.693651139736
1549646532260246705,,405716,,1549646532,259975830,"""world""",,,1.78979039192,-1.28052139282,0.569702267647,,-0.00237844302319,0.0117346914485,0.720203220844,0.693659901619
1549646532270546435,,405717,,1549646532,270284496,"""world""",,,1.78982305527,-1.2805300951,0.569711923599,,-0.0022506697569,0.01178182289,0.720180153847,0.693683445454
1549646532270571525,,405718,,1549646532,270310165,"""world""",,,1.78982019424,-1.28053092957,0.569703042507,,-0.00225441157818,0.0116580277681,0.720177590847,0.69368827343
1549646532281912170,,405719,,1549646532,280561226,"""world""",,,1.78980958462,-1.28053331375,0.569694578648,,-0.00222034100443,0.0115393558517,0.720178306103,0.693689525127
1549646532290194527,,405720,,1549646532,289934769,"""world""",,,1.7898286581,-1.2805480957,0.569710850716,,-0.00207229005173,0.0115516223013,0.720263242722,0.693601608276
1549646532300543056,,405721,,1549646532,300280178,"""world""",,,1.78985786438,-1.28056490421,0.569702506065,,-0.00195660558529,0.0115762352943,0.720280647278,0.693583548069
1549646532310071864,,405722,,1549646532,309849516,"""world""",,,1.78984248638,-1.28056013584,0.569714605808,,-0.00198025256395,0.0115197664127,0.720222771168,0.693644404411
1549646532320404352,,405723,,1549646532,320147493,"""world""",,,1.7898235321,-1.28055500984,0.569700777531,,-0.00209659151733,0.0115238167346,0.720173716545,0.69369494915
1549646532320447957,,405724,,1549646532,320176160,"""world""",,,1.78983521461,-1.28056514263,0.569702148438,,-0.00199338491075,0.0115842418745,0.720202982426,0.693663954735
1549646532330862072,,405725,,1549646532,330593531,"""world""",,,1.78983747959,-1.28056406975,0.569705843925,,-0.00210128515027,0.0116756930947,0.720217108727,0.693647384644
1549646532340234567,,405726,,1549646532,340007635,"""world""",,,1.7898273468,-1.28056180477,0.569706678391,,-0.00207440578379,0.0115990787745,0.720211148262,0.693654835224
1549646532350643375,,405727,,1549646532,350405479,"""world""",,,1.78983259201,-1.28054904938,0.569710850716,,-0.00204976438545,0.0116234468296,0.720215022564,0.69365054369
1549646532359979582,,405728,,1549646532,359730919,"""world""",,,1.78982460499,-1.28055202961,0.569707989693,,-0.0019994575996,0.011553558521,0.7202501297,0.693615376949
1549646532370277234,,405729,,1549646532,370051380,"""world""",,,1.78981912136,-1.28054988384,0.569709837437,,-0.00212115678005,0.0114975636825,0.720339715481,0.69352298975
1549646532370310698,,405730,,1549646532,370085873,"""world""",,,1.78981208801,-1.28052413464,0.569712877274,,-0.0022014088463,0.0115379970521,0.720236182213,0.69362950325
1549646532380618918,,405731,,1549646532,380380722,"""world""",,,1.78980827332,-1.28059875965,0.569701373577,,-0.00222900509834,0.0116607658565,0.720402538776,0.693454563618
1549646532390005178,,405732,,1549646532,389766280,"""world""",,,1.78979563713,-1.28086555004,0.569675683975,,-0.00193092634436,0.0112600056455,0.720403492451,0.693461060524
1549646532400297976,,405733,,1549646532,400075079,"""world""",,,1.78975081444,-1.28119874001,0.569623589516,,-0.00165624159854,0.0107144257054,0.720088839531,0.693797171116
1549646532410945563,,405734,,1549646532,410546228,"""world""",,,1.78973460197,-1.28147447109,0.569591701031,,-0.00110692344606,0.0101017029956,0.720173418522,0.693719685078
1549646532420352693,,405735,,1549646532,419986098,"""world""",,,1.78969430923,-1.2813308239,0.569588661194,,-0.00113332481124,0.00996256340295,0.720107018948,0.693790614605
1549646532420509790,,405736,,1549646532,420060823,"""world""",,,1.78975307941,-1.28078424931,0.569624960423,,-0.00123372895177,0.0105053568259,0.720020890236,0.693871736526
1549646532430030757,,405737,,1549646532,429605782,"""world""",,,1.78981053829,-1.28011000156,0.569676041603,,-0.00138095021248,0.0113992895931,0.720130205154,0.693743944168
1549646532440579631,,405738,,1549646532,440127281,"""world""",,,1.78975558281,-1.27941191196,0.569695293903,,-0.0019315489335,0.0117039047182,0.72017711401,0.693688869476
1549646532450927434,,405739,,1549646532,450600248,"""world""",,,1.78975903988,-1.27877533436,0.569791972637,,-0.00204227515496,0.0120227020234,0.720315873623,0.693539083004
1549646532460410470,,405740,,1549646532,460038260,"""world""",,,1.78975296021,-1.27814459801,0.569802641869,,-0.00213957694359,0.0121761336923,0.720371544361,0.693478226662
1549646532470848217,,405741,,1549646532,470484329,"""world""",,,1.78977060318,-1.27759766579,0.569833636284,,-0.00213065207936,0.012408701703,0.72039192915,0.693452954292
1549646532470885279,,405742,,1549646532,470537472,"""world""",,,1.78978896141,-1.27722048759,0.569813549519,,-0.00237035285681,0.0123865567148,0.720639765263,0.693195104599
1549646532480115812,,405743,,1549646532,479875592,"""world""",,,1.78981256485,-1.27697682381,0.569782435894,,-0.00245774094947,0.0123307360336,0.720763683319,0.693066835403
1549646532490277926,,405744,,1549646532,490122509,"""world""",,,1.7898837328,-1.27684247494,0.569745659828,,-0.00243668444455,0.0120189199224,0.721019566059,0.692806184292
1549646532500498654,,405745,,1549646532,500340371,"""world""",,,1.78995299339,-1.27676904202,0.569747805595,,-0.0021118435543,0.0117019908503,0.721011400223,0.692821145058
1549646532509731638,,405746,,1549646532,509536848,"""world""",,,1.79001700878,-1.27667570114,0.569705963135,,-0.00188516417984,0.0114689553156,0.721080303192,0.692754030228
1549646532519995289,,405747,,1549646532,519832030,"""world""",,,1.79007339478,-1.2765083313,0.569676041603,,-0.00183930073399,0.0113847441971,0.721156299114,0.692676484585
1549646532530283670,,405748,,1549646532,530079658,"""world""",,,1.79013323784,-1.27622294426,0.569661080837,,-0.00202312855981,0.0115666957572,0.721207082272,0.692620098591
1549646532530299060,,405749,,1549646532,530103786,"""world""",,,1.79018008709,-1.27584934235,0.569655060768,,-0.00227487040684,0.0116079291329,0.721267521381,0.692555546761
1549646532540512936,,405750,,1549646532,540321593,"""world""",,,1.79021775723,-1.27538299561,0.569687306881,,-0.00244036503136,0.0118936318904,0.72115367651,0.692668735981
1549646532550737736,,405751,,1549646532,550541647,"""world""",,,1.79023206234,-1.27491486073,0.569709002972,,-0.00267374585383,0.0119536155835,0.720998346806,0.692828595638
1549646532560470250,,405752,,1549646532,559827125,"""world""",,,1.79025864601,-1.27444934845,0.569712042809,,-0.00286113889888,0.0119795305654,0.721146702766,0.692672908306
1549646532570277671,,405753,,1549646532,570092319,"""world""",,,1.7902995348,-1.27407741547,0.569744706154,,-0.00290593807586,0.0122609669343,0.721396267414,0.692407906055
1549646532570297787,,405754,,1549646532,570112639,"""world""",,,1.79027366638,-1.27372837067,0.569733858109,,-0.00299741374329,0.0121927969158,0.72118639946,0.692627310753
1549646532580532123,,405755,,1549646532,580367101,"""world""",,,1.79023218155,-1.27352809906,0.569737017155,,-0.00285116722807,0.0120726851746,0.721101164818,0.692718803883
1549646532589732468,,405756,,1549646532,589577077,"""world""",,,1.79018950462,-1.27341771126,0.569737136364,,-0.00275022839196,0.0120182782412,0.72097235918,0.692854225636
1549646532600019368,,405757,,1549646532,599847708,"""world""",,,1.7900788784,-1.27342796326,0.569717288017,,-0.00268065044656,0.0117480866611,0.720850408077,0.6929859519
1549646532610297242,,405758,,1549646532,610125980,"""world""",,,1.78999507427,-1.27346265316,0.569672644138,,-0.00247102975845,0.0114388903603,0.720873296261,0.692968130112
1549646532620579092,,405759,,1549646532,620381034,"""world""",,,1.78986644745,-1.27346861362,0.569651901722,,-0.00229242420755,0.0112454947084,0.720814526081,0.69303303957
1549646532620600406,,405760,,1549646532,620404127,"""world""",,,1.78970992565,-1.27346587181,0.569632470608,,-0.00229710503481,0.0111381020397,0.72084581852,0.693002164364
1549646532629880996,,405761,,1549646532,629680326,"""world""",,,1.78959929943,-1.27335596085,0.56964224577,,-0.00226560444571,0.0111266896129,0.720687568188,0.693167090416
1549646532640155942,,405762,,1549646532,639955306,"""world""",,,1.78952813148,-1.27310228348,0.569664359093,,-0.00241856765933,0.0112296007574,0.720716774464,0.69313454628
1549646532650377346,,405763,,1549646532,650187828,"""world""",,,1.78947365284,-1.27284610271,0.569660544395,,-0.00233747181483,0.0110300024971,0.720417737961,0.693448841572
1549646532660985119,,405764,,1549646532,660548768,"""world""",,,1.78947150707,-1.27252089977,0.569707036018,,-0.00254705594853,0.0111797722057,0.72035330534,0.693512618542
1549646532661024572,,405765,,1549646532,660589676,"""world""",,,1.78947818279,-1.27221369743,0.569708645344,,-0.00261533004232,0.0110627161339,0.720258057117,0.693613111973
1549646532670402208,,405766,,1549646532,669962119,"""world""",,,1.78949761391,-1.27194178104,0.569722831249,,-0.00274711148813,0.0112249795347,0.720101714134,0.693772256374
1549646532681556785,,405767,,1549646532,681175279,"""world""",,,1.78954637051,-1.27179074287,0.569719135761,,-0.0025833256077,0.011039018631,0.720210254192,0.693663239479
1549646532691451730,,405768,,1549646532,689916354,"""world""",,,1.78969967365,-1.27159309387,0.56977814436,,-0.00240620761178,0.0118122091517,0.720554411411,0.693293690681
1549646532700896710,,405769,,1549646532,700513526,"""world""",,,1.78976714611,-1.27153992653,0.569753706455,,-0.00220475252718,0.0116565488279,0.72064936161,0.693198263645
1549646532710179464,,405770,,1549646532,709929230,"""world""",,,1.78982532024,-1.27147197723,0.569713592529,,-0.00205457955599,0.0115081807598,0.720523059368,0.693332493305
1549646532720513390,,405771,,1549646532,720264216,"""world""",,,1.78990733624,-1.27133560181,0.569686353207,,-0.00206563505344,0.0114503465593,0.720627009869,0.693225324154
1549646532720538460,,405772,,1549646532,720294201,"""world""",,,1.7899941206,-1.27118170261,0.569685161114,,-0.00190811627544,0.0115052284673,0.720798134804,0.693046927452
1549646532729905257,,405773,,1549646532,729615654,"""world""",,,1.79017198086,-1.27090454102,0.569746673107,,-0.00184460252058,0.0121292304248,0.721255481243,0.692560493946
1549646532740269939,,405774,,1549646532,740016735,"""world""",,,1.79029095173,-1.27050244808,0.569787085056,,-0.0018730427837,0.0126679958776,0.72115957737,0.692650735378
1549646532750584458,,405775,,1549646532,750333039,"""world""",,,1.79026556015,-1.27014768124,0.569747269154,,-0.00201723305508,0.0124233327806,0.720933496952,0.692889988422
1549646532759791664,,405776,,1549646532,759574491,"""world""",,,1.79025495052,-1.26972424984,0.569755911827,,-0.00214846828021,0.0124134775251,0.720859587193,0.6929666996
1549646532770073782,,405777,,1549646532,769836657,"""world""",,,1.79024505615,-1.26929748058,0.569772183895,,-0.00229388289154,0.012363451533,0.720891952515,0.692933499813
1549646532770099917,,405778,,1549646532,769862407,"""world""",,,1.79022502899,-1.26894104481,0.569802582264,,-0.00231140945107,0.0122794974595,0.720886409283,0.69294065237
1549646532780454823,,405779,,1549646532,780153735,"""world""",,,1.79020369053,-1.26864027977,0.569905757904,,-0.00278405891731,0.0127889411524,0.720883846283,0.692932367325
1549646532790843924,,405780,,1549646532,790573478,"""world""",,,1.79016637802,-1.26835203171,0.569921851158,,-0.0028790642973,0.0128254387528,0.720631539822,0.693193674088
1549646532800115233,,405781,,1549646532,799861221,"""world""",,,1.79017364979,-1.26814305782,0.569924294949,,-0.00273623550311,0.0129155283794,0.720508396626,0.693320512772
1549646532810515861,,405782,,1549646532,810252632,"""world""",,,1.79015612602,-1.26800203323,0.569905459881,,-0.00274824816734,0.0128356609493,0.720495820045,0.69333511591
1549646532820795785,,405783,,1549646532,820510865,"""world""",,,1.79015350342,-1.26787853241,0.569900810719,,-0.00251907436177,0.0126128038391,0.720627188683,0.693203508854
1549646532820824586,,405784,,1549646532,820536544,"""world""",,,1.7901211977,-1.26771664619,0.569864630699,,-0.00248246081173,0.012295900844,0.720581412315,0.693256914616
1549646532830091583,,405785,,1549646532,829860452,"""world""",,,1.79010343552,-1.26754105091,0.569771409035,,-0.00210384558886,0.0116114830598,0.720837771893,0.693003416061
1549646532840421749,,405786,,1549646532,840168465,"""world""",,,1.79010355473,-1.26728570461,0.569769203663,,-0.00207865634002,0.0116125112399,0.72087931633,0.692960321903
1549646532850657603,,405787,,1549646532,850427093,"""world""",,,1.79009842873,-1.26700019836,0.569775700569,,-0.00220163376071,0.011636769399,0.720806956291,0.6930347085
1549646532859965647,,405788,,1549646532,859754629,"""world""",,,1.79008328915,-1.26669490337,0.569759309292,,-0.00241070520133,0.0117535814643,0.720902979374,0.692932128906
1549646532870241995,,405789,,1549646532,870043046,"""world""",,,1.7900929451,-1.26658403873,0.569737792015,,-0.00208089407533,0.0114874318242,0.720934450626,0.692905008793
1549646532880640567,,405790,,1549646532,880379631,"""world""",,,1.79005873203,-1.26668012142,0.569673538208,,-0.00175105512608,0.0110792750493,0.720955610275,0.692890584469
1549646532880671252,,405791,,1549646532,880411250,"""world""",,,1.79002916813,-1.26678800583,0.569619417191,,-0.00128917756956,0.0105594573542,0.720974683762,0.692879796028
1549646532890064342,,405792,,1549646532,889822839,"""world""",,,1.79003202915,-1.26655721664,0.569564878941,,-0.00104692357127,0.0101071307436,0.720816671848,0.693051278591
1549646532900480590,,405793,,1549646532,900230653,"""world""",,,1.7900313139,-1.26592218876,0.569560170174,,-0.00123533769511,0.0101690096781,0.720611512661,0.693263411522
1549646532910826361,,405794,,1549646532,910590651,"""world""",,,1.7900415659,-1.26500332355,0.569590687752,,-0.00154386914801,0.0104223238304,0.720458507538,0.69341814518
1549646532920174438,,405795,,1549646532,919889372,"""world""",,,1.79003870487,-1.26387548447,0.569643676281,,-0.0018105515046,0.0108022121713,0.720476150513,0.693393290043
1549646532920207831,,405796,,1549646532,919915901,"""world""",,,1.79021215439,-1.26253545284,0.569744765759,,-0.00210375431925,0.0117662195116,0.720275223255,0.693585455418
1549646532930458432,,405797,,1549646532,930210157,"""world""",,,1.79024493694,-1.26128339767,0.569793879986,,-0.00253636273555,0.0124408500269,0.720267593861,0.693580210209
1549646532940856384,,405798,,1549646532,940610229,"""world""",,,1.79021239281,-1.26018714905,0.569889187813,,-0.00263113505207,0.0129468655214,0.720401227474,0.693431735039
1549646532950196228,,405799,,1549646532,949952301,"""world""",,,1.79007220268,-1.25926935673,0.569923937321,,-0.00301916128956,0.0125189609826,0.720596373081,0.69323527813
1549646532960492633,,405800,,1549646532,960260511,"""world""",,,1.79001069069,-1.25849890709,0.569970786572,,-0.00302606215701,0.0125296758488,0.720644414425,0.693185031414
1549646532970837254,,405801,,1549646532,970571994,"""world""",,,1.79001581669,-1.25771427155,0.569973349571,,-0.00317868078128,0.0127228517085,0.720450520515,0.693382322788
1549646532970862059,,405802,,1549646532,970603460,"""world""",,,1.79003298283,-1.25712156296,0.569960653782,,-0.00308068469167,0.0124910287559,0.720349550247,0.69349193573
1549646532980155783,,405803,,1549646532,979897770,"""world""",,,1.79003989697,-1.25668728352,0.569914758205,,-0.00299442256801,0.0121863596141,0.720404446125,0.693440675735
1549646532990483298,,405804,,1549646532,990215280,"""world""",,,1.79008293152,-1.2562828064,0.569879055023,,-0.00270175677724,0.0118207279593,0.720298528671,0.6935582757
1549646533001706887,,405805,,1549646533,574419,"""world""",,,1.79015862942,-1.25583827496,0.569868922234,,-0.00246566976421,0.0116049014032,0.720371484756,0.693486988544
1549646533010202959,,405806,,1549646533,9962104,"""world""",,,1.79025352001,-1.25537228584,0.569863319397,,-0.00225713127293,0.011556413956,0.720400452614,0.693458378315
1549646533020466490,,405807,,1549646533,20234658,"""world""",,,1.79041230679,-1.25479280949,0.569893300533,,-0.00198666402139,0.0116269206628,0.720013558865,0.693859815598
1549646533020499127,,405808,,1549646533,20266158,"""world""",,,1.79051136971,-1.25412321091,0.569910347462,,-0.0018354706699,0.0118535151705,0.720096707344,0.693770051003
1549646533030819927,,405809,,1549646533,30598048,"""world""",,,1.79055666924,-1.2533955574,0.569926738739,,-0.00185615220107,0.0119412587956,0.719954311848,0.693916261196
1549646533040352693,,405810,,1549646533,39940520,"""world""",,,1.79053270817,-1.25263237953,0.569985508919,,-0.00217300793156,0.0122337462381,0.719854712486,0.694013535976
1549646533050903222,,405811,,1549646533,50438670,"""world""",,,1.79050946236,-1.25182700157,0.569989144802,,-0.00242414395325,0.0124400537461,0.719895482063,0.693966805935
1549646533060373277,,405812,,1549646533,59966752,"""world""",,,1.79041922092,-1.25113320351,0.570003032684,,-0.00261086807586,0.0125709762797,0.719874203205,0.693985879421
1549646533070939926,,405813,,1549646533,70484728,"""world""",,,1.79026389122,-1.25053536892,0.569980382919,,-0.00265719462186,0.0122953169048,0.720110118389,0.693745791912
1549646533071023221,,405814,,1549646533,70527751,"""world""",,,1.79011964798,-1.24994373322,0.569964647293,,-0.00270603853278,0.0123501205817,0.720211684704,0.693639159203
1549646533080423629,,405815,,1549646533,79959644,"""world""",,,1.78996145725,-1.2494546175,0.569952905178,,-0.00268493313342,0.0120398271829,0.720341563225,0.693509876728
1549646533090656732,,405816,,1549646533,90432212,"""world""",,,1.78990447521,-1.24904286861,0.569921672344,,-0.00258944602683,0.0118222702295,0.720502972603,0.693346321583
1549646533100215018,,405817,,1549646533,99823016,"""world""",,,1.78987360001,-1.24866008759,0.56990891695,,-0.00249857851304,0.0113578531891,0.720440745354,0.693419039249
1549646533110682688,,405818,,1549646533,110275314,"""world""",,,1.7899068594,-1.2481354475,0.569895744324,,-0.00259193149395,0.0112775200978,0.720337927341,0.693526804447
1549646533120076999,,405819,,1549646533,119595192,"""world""",,,1.79000306129,-1.24756538868,0.569921314716,,-0.00258442619815,0.011408412829,0.720295548439,0.693568646908
1549646533120117677,,405820,,1549646533,119647594,"""world""",,,1.79013991356,-1.24694824219,0.569951653481,,-0.00260104914196,0.011491141282,0.720533013344,0.693320631981
1549646533130478191,,405821,,1549646533,130257343,"""world""",,,1.79033923149,-1.24614167213,0.569990217686,,-0.00244104396552,0.0120086604729,0.720358788967,0.693493366241
1549646533140829152,,405822,,1549646533,140591691,"""world""",,,1.79060971737,-1.24539804459,0.570089459419,,-0.0023209603969,0.0132053233683,0.720867991447,0.692942738533
1549646533150319634,,405823,,1549646533,150065833,"""world""",,,1.79071772099,-1.24474895,0.570108830929,,-0.00235984148458,0.0135203320533,0.720914125443,0.692888557911
1549646533160632175,,405824,,1549646533,160405925,"""world""",,,1.79066967964,-1.24415946007,0.570013165474,,-0.0025394607801,0.0128041151911,0.720453500748,0.69338041544
1549646533170087619,,405825,,1549646533,169835055,"""world""",,,1.79066765308,-1.24362134933,0.569979429245,,-0.00264043686911,0.012795291841,0.720428884029,0.693405747414
1549646533170120292,,405826,,1549646533,169867347,"""world""",,,1.79063570499,-1.24312078953,0.569964051247,,-0.00254878727719,0.0126173859462,0.720564961433,0.693267941475
1549646533180440587,,405827,,1549646533,180195794,"""world""",,,1.79060208797,-1.2425917387,0.569986760616,,-0.00249167508446,0.0126213431358,0.720293402672,0.693550229073
1549646533191191653,,405828,,1549646533,190751469,"""world""",,,1.79053544998,-1.24210059643,0.569996893406,,-0.00240088766441,0.0122350808233,0.720396161079,0.69345074892
1549646533200547030,,405829,,1549646533,200181298,"""world""",,,1.79044318199,-1.24154055119,0.569996595383,,-0.00252729118802,0.0119856959209,0.720443546772,0.693405389786
1549646533211031218,,405830,,1549646533,210620464,"""world""",,,1.79034435749,-1.2408721447,0.569991111755,,-0.00258939363994,0.0119313625619,0.72037255764,0.693479955196
1549646533211074725,,405831,,1549646533,210768663,"""world""",,,1.79026556015,-1.24024987221,0.569944918156,,-0.00280805351213,0.0117850201204,0.720409691334,0.693443059921
1549646533220257989,,405832,,1549646533,220091383,"""world""",,,1.79026556015,-1.23964369297,0.569940209389,,-0.00299926660955,0.0116301532835,0.720390915871,0.69346421957
1549646533230563718,,405833,,1549646533,230416642,"""world""",,,1.79033815861,-1.23899543285,0.569953739643,,-0.00298667000607,0.0116824377328,0.720236480236,0.693623840809
1549646533239834028,,405834,,1549646533,239673920,"""world""",,,1.79041957855,-1.23835480213,0.569970846176,,-0.00292121432722,0.0114855654538,0.720034658909,0.693836987019
1549646533250165111,,405835,,1549646533,250008580,"""world""",,,1.79050862789,-1.23764002323,0.570000112057,,-0.00291011156514,0.0113918278366,0.719944000244,0.693932592869
1549646533260490781,,405836,,1549646533,260316315,"""world""",,,1.79083788395,-1.23681330681,0.570170044899,,-0.00271653127857,0.0131129967049,0.720485329628,0.693340837955
1549646533269778239,,405837,,1549646533,269577624,"""world""",,,1.79093360901,-1.23622345924,0.570200681686,,-0.00236243079416,0.0132403597236,0.720560193062,0.693262040615
1549646533269812781,,405838,,1549646533,269597531,"""world""",,,1.79087555408,-1.23562955856,0.570164263248,,-0.00246043899097,0.0128092449158,0.720081090927,0.693767309189
1549646533280064706,,405839,,1549646533,279850258,"""world""",,,1.79088580608,-1.23510754108,0.570152163506,,-0.00239785225131,0.0127778872848,0.720099329948,0.693749308586
1549646533290224330,,405840,,1549646533,290067594,"""world""",,,1.79083299637,-1.23470783234,0.570127725601,,-0.0023613886442,0.0125344665721,0.720220267773,0.693628191948
1549646533300517348,,405841,,1549646533,300322233,"""world""",,,1.79074788094,-1.2342748642,0.570086956024,,-0.00236338167451,0.0122279589996,0.720179378986,0.693676173687
1549646533309968621,,405842,,1549646533,309806066,"""world""",,,1.7906935215,-1.23406600952,0.570037901402,,-0.00206906627864,0.0117509029806,0.720188319683,0.693676114082
1549646533320262229,,405843,,1549646533,320015682,"""world""",,,1.79061877728,-1.23395848274,0.570011019707,,-0.00154873577412,0.0110978567973,0.720120429993,0.693758666515
1549646533320280044,,405844,,1549646533,320033765,"""world""",,,1.79056406021,-1.23365914822,0.569990336895,,-0.0012133102864,0.0105593632907,0.720172286034,0.693713903427
1549646533330660652,,405845,,1549646533,330281962,"""world""",,,1.79053914547,-1.23281145096,0.569999575615,,-0.00137211056426,0.0106143830344,0.7202475667,0.693634569645
1549646533340736096,,405846,,1549646533,340534814,"""world""",,,1.79058504105,-1.23153066635,0.570050418377,,-0.00133615161758,0.0106665017083,0.720421135426,0.693453609943
1549646533350028789,,405847,,1549646533,349851109,"""world""",,,1.79075443745,-1.22995185852,0.570084631443,,-0.00170377723407,0.0108048180118,0.720313549042,0.69356238842
1549646533360347573,,405848,,1549646533,360171724,"""world""",,,1.79115915298,-1.22814548016,0.570262730122,,-0.00191122945398,0.0130362138152,0.72107642889,0.692730307579
1549646533370634238,,405849,,1549646533,370448682,"""world""",,,1.79105770588,-1.22633874416,0.570200324059,,-0.00275351107121,0.0125568779185,0.720633685589,0.693196952343
1549646533370653266,,405850,,1549646533,370470726,"""world""",,,1.79120826721,-1.22463023663,0.570306122303,,-0.0031643952243,0.0135873993859,0.721162438393,0.692625582218
1549646533379887999,,405851,,1549646533,379686228,"""world""",,,1.79125785828,-1.22327828407,0.570399224758,,-0.00336718815379,0.01388736628,0.721159756184,0.692621469498
1549646533390089437,,405852,,1549646533,389939973,"""world""",,,1.7911772728,-1.22210848331,0.570420980453,,-0.00372515851632,0.013176116161,0.720177233219,0.693655014038
1549646533400318453,,405853,,1549646533,400158620,"""world""",,,1.79118275642,-1.22108578682,0.570373296738,,-0.00326121039689,0.0128957610577,0.719744682312,0.694111406803
1549646533410608435,,405854,,1549646533,410372610,"""world""",,,1.79137861729,-1.22024548054,0.570420622826,,-0.00264356192201,0.0137066245079,0.720733582973,0.69307166338
1549646533419754813,,405855,,1549646533,419589730,"""world""",,,1.79130685329,-1.21954655647,0.570358395576,,-0.00264456751756,0.0134477345273,0.720999956131,0.692799568176
1549646533419770932,,405856,,1549646533,419614999,"""world""",,,1.79124820232,-1.21910834312,0.570358455181,,-0.00226927176118,0.0130436383188,0.721078515053,0.692726910114
1549646533430101320,,405857,,1549646533,429848026,"""world""",,,1.79118978977,-1.21855139732,0.570364058018,,-0.00218667392619,0.0127248959616,0.721180319786,0.692627131939
1549646533440291767,,405858,,1549646533,440109458,"""world""",,,1.79119932652,-1.21782135963,0.570376038551,,-0.00211119488813,0.0126454215497,0.721276640892,0.692528486252
1549646533450616700,,405859,,1549646533,450465557,"""world""",,,1.79121911526,-1.21695971489,0.570343613625,,-0.00163251557387,0.0121745923534,0.721001327038,0.692824840546
1549646533459943549,,405860,,1549646533,459778364,"""world""",,,1.79117047787,-1.21577906609,0.57021766901,,-0.00187420274597,0.0113601265475,0.720417916775,0.693444669247
1549646533470205984,,405861,,1549646533,470017890,"""world""",,,1.79121685028,-1.21437633038,0.570192694664,,-0.00281093269587,0.0116317030042,0.72036832571,0.693488478661
1549646533470226598,,405862,,1549646533,470037260,"""world""",,,1.79155516624,-1.21276724339,0.570392906666,,-0.00304449931718,0.0134361023083,0.720641255379,0.693171203136
1549646533480507800,,405863,,1549646533,480308227,"""world""",,,1.79171204567,-1.21122288704,0.570545971394,,-0.00315846293233,0.0140653187409,0.720365405083,0.69344496727
1549646533490735816,,405864,,1549646533,490532582,"""world""",,,1.79188466072,-1.21004390717,0.57060521841,,-0.00308232544921,0.0143682956696,0.720590412617,0.693205237389
1549646533500010691,,405865,,1549646533,499821428,"""world""",,,1.79192185402,-1.20907950401,0.570592820644,,-0.00314719672315,0.014196514152,0.720979690552,0.692803621292
1549646533510307341,,405866,,1549646533,510084755,"""world""",,,1.79195415974,-1.208335042,0.570557892323,,-0.00322398706339,0.0141430888325,0.721161186695,0.692615449429
1549646533520548767,,405867,,1549646533,520389702,"""world""",,,1.79186463356,-1.20786547661,0.570466399193,,-0.00305893621407,0.0131398495287,0.720788478851,0.69302380085
1549646533520566290,,405868,,1549646533,520411093,"""world""",,,1.79191589355,-1.20749819279,0.570461750031,,-0.00271209212951,0.0127861872315,0.720731794834,0.693090796471
1549646533529757690,,405869,,1549646533,529600106,"""world""",,,1.79193139076,-1.20710110664,0.570431292057,,-0.00231429445557,0.0123406760395,0.720612883568,0.693223953247
1549646533540117166,,405870,,1549646533,539891497,"""world""",,,1.79193770885,-1.20653748512,0.570349037647,,-0.00212710397318,0.0114133898169,0.720448195934,0.693411707878
1549646533550289719,,405871,,1549646533,550132594,"""world""",,,1.79189062119,-1.20580983162,0.570348620415,,-0.00178928591777,0.0111484397203,0.719829618931,0.69405901432
1549646533560781972,,405872,,1549646533,560595898,"""world""",,,1.79187059402,-1.20494198799,0.570350170135,,-0.00180123455357,0.0111735258251,0.719932556152,0.693951785564
1549646533560798260,,405873,,1549646533,560625194,"""world""",,,1.7919999361,-1.20373749733,0.570484995842,,-0.00175828812644,0.0125419097021,0.72042709589,0.693415105343
1549646533570394985,,405874,,1549646533,570226989,"""world""",,,1.79191744328,-1.20271420479,0.57054579258,,-0.00187059049495,0.01277922187,0.720538675785,0.693294405937
1549646533580665136,,405875,,1549646533,580502392,"""world""",,,1.79180955887,-1.20159077644,0.570572495461,,-0.00212519033812,0.0128317307681,0.720677256584,0.69314879179
1549646533589930105,,405876,,1549646533,589776673,"""world""",,,1.79176783562,-1.20036041737,0.570596575737,,-0.00240167509764,0.0128478826955,0.720932066441,0.692882537842
1549646533600234588,,405877,,1549646533,600067714,"""world""",,,1.7917650938,-1.19910943508,0.570613443851,,-0.00278319604695,0.0129747604951,0.721088707447,0.692715644836
1549646533610497229,,405878,,1549646533,610306047,"""world""",,,1.79177439213,-1.1979701519,0.570669770241,,-0.00290066958405,0.0130960214883,0.720834612846,0.692977368832
1549646533619820914,,405879,,1549646533,619583127,"""world""",,,1.79182207584,-1.19702625275,0.5707000494,,-0.00287706381641,0.0128986090422,0.720225572586,0.693614125252
1549646533619841729,,405880,,1549646533,619602552,"""world""",,,1.7917983532,-1.19615125656,0.570635735989,,-0.00314423115924,0.0122028347105,0.71915012598,0.694740474224
1549646533630057390,,405881,,1549646533,629849244,"""world""",,,1.79191255569,-1.19536161423,0.570621967316,,-0.00274262134917,0.0122853275388,0.718990206718,0.694906234741
